{
"type": "FeatureCollection",
"name": "2_Off_WC__Camping__Put_Take",
"crs": { "type": "name", "properties": { "name": "urn:ogc:def:crs:OGC:1.3:CRS84" } },
"features": [
{ "type": "Feature", "properties": { "Name": "Aarhus Camping", "description": "<a href=\"https:\/\/www.youtube.com\/watch?v=xBZsDu72zdU\"><img src=\"https:\/\/img.youtube.com\/vi\/xBZsDu72zdU\/hqdefault.jpg\" height=\"200\" width=\"auto\" \/><\/a><br><br><a href=\"https:\/\/www.youtube.com\/embed\/xBZsDu72zdU\">https:\/\/www.youtube.com\/embed\/xBZsDu72zdU<\/a><br><br>beskrivelse: <br><br>https:\/\/www.youtube.com\/embed\/xBZsDu72zdU<br><br>beskrivelse: <br>type: 120v<br>Videofilm: https:\/\/youtu.be\/xBZsDu72zdU<br>Street View: https:\/\/goo.gl\/maps\/cmy8RZdbxJAdWFtE8<br>type: 120v<br>Videofilm: https:\/\/youtu.be\/xBZsDu72zdU<br>Street View: https:\/\/goo.gl\/maps\/cmy8RZdbxJAdWFtE8", "beskrivelse": "\nhttps:\/\/www.youtube.com\/embed\/xBZsDu72zdU\n\nbeskrivelse: \ntype: 120v\nVideofilm: https:\/\/youtu.be\/xBZsDu72zdU\nStreet View: https:\/\/goo.gl\/maps\/cmy8RZdbxJAdWFtE8", "type": "120v", "Videofilm": "https:\/\/youtu.be\/xBZsDu72zdU", "Street_View": "https:\/\/goo.gl\/maps\/cmy8RZdbxJAdWFtE8", "gx_media_links": "https:\/\/www.youtube.com\/embed\/xBZsDu72zdU" }, "geometry": { "type": "Point", "coordinates": [ 10.162741, 56.226674 ] } },
{ "type": "Feature", "properties": { "Name": "DCU-Camping Blommehaven", "description": "beskrivelse: beskrivelse: <br>type: <br>Videofilm: <br>Street View:<br>type: <br>Videofilm: <br>Street View: ", "beskrivelse": "beskrivelse: \ntype: \nVideofilm: \nStreet View:", "type": "", "Videofilm": "", "Street_View": "", "gx_media_links": null }, "geometry": { "type": "Point", "coordinates": [ 10.23225, 56.110309 ] } },
{ "type": "Feature", "properties": { "Name": "Silkeborg Sø Camping & Feriehuse", "description": "beskrivelse: beskrivelse: http:\/\/seacamp.dk\/<br>type: <br>Videofilm: <br>Street View:<br>type: <br>Videofilm: <br>Street View: ", "beskrivelse": "beskrivelse: http:\/\/seacamp.dk\/\ntype: \nVideofilm: \nStreet View:", "type": "", "Videofilm": "", "Street_View": "", "gx_media_links": null }, "geometry": { "type": "Point", "coordinates": [ 9.576496, 56.170275 ] } },
{ "type": "Feature", "properties": { "Name": "Kaløvig Strandgård Camping", "description": "beskrivelse: beskrivelse: <br>type: <br>Videofilm: <br>Street View:<br>type: <br>Videofilm: <br>Street View: ", "beskrivelse": "beskrivelse: \ntype: \nVideofilm: \nStreet View:", "type": "", "Videofilm": "", "Street_View": "", "gx_media_links": null }, "geometry": { "type": "Point", "coordinates": [ 10.404089, 56.293566 ] } },
{ "type": "Feature", "properties": { "Name": "Gammel Viborgvej", "description": "<a href=\"https:\/\/www.youtube.com\/watch?v=AMbTo6qc5Ks\"><img src=\"https:\/\/img.youtube.com\/vi\/AMbTo6qc5Ks\/hqdefault.jpg\" height=\"200\" width=\"auto\" \/><\/a><br><br><a href=\"https:\/\/www.youtube.com\/embed\/AMbTo6qc5Ks\">https:\/\/www.youtube.com\/embed\/AMbTo6qc5Ks<\/a><br><br>beskrivelse: <br><br>https:\/\/www.youtube.com\/embed\/AMbTo6qc5Ks<br><br>beskrivelse: https:\/\/farso-fjordcamping.dk\/da\/  (https:\/\/farso-fjordcamping.dk\/da\/ )<br>type: 160v<br>Videofilm: https:\/\/youtu.be\/AMbTo6qc5Ks<br>Street View: https:\/\/goo.gl\/maps\/gzgqQN8NptasH2nv5<br>type: 160v<br>Videofilm: https:\/\/youtu.be\/AMbTo6qc5Ks<br>Street View: https:\/\/goo.gl\/maps\/gzgqQN8NptasH2nv5", "beskrivelse": "\nhttps:\/\/www.youtube.com\/embed\/AMbTo6qc5Ks\n\nbeskrivelse: https:\/\/farso-fjordcamping.dk\/da\/  (https:\/\/farso-fjordcamping.dk\/da\/ )\ntype: 160v\nVideofilm: https:\/\/youtu.be\/AMbTo6qc5Ks\nStreet View: https:\/\/goo.gl\/maps\/gzgqQN8NptasH2nv5", "type": "160v", "Videofilm": "https:\/\/youtu.be\/AMbTo6qc5Ks", "Street_View": "https:\/\/goo.gl\/maps\/gzgqQN8NptasH2nv5", "gx_media_links": "https:\/\/www.youtube.com\/embed\/AMbTo6qc5Ks" }, "geometry": { "type": "Point", "coordinates": [ 9.24259, 56.75749 ] } },
{ "type": "Feature", "properties": { "Name": "Sakskøbing Camping", "description": "beskrivelse: beskrivelse: <br>type: <br>Videofilm: <br>Street View:<br>type: <br>Videofilm: <br>Street View: ", "beskrivelse": "beskrivelse: \ntype: \nVideofilm: \nStreet View:", "type": "", "Videofilm": "", "Street_View": "", "gx_media_links": null }, "geometry": { "type": "Point", "coordinates": [ 11.640997, 54.798419 ] } },
{ "type": "Feature", "properties": { "Name": "Maribo Sø Camping", "description": "beskrivelse: beskrivelse: <br>type: <br>Videofilm: <br>Street View:<br>type: <br>Videofilm: <br>Street View: ", "beskrivelse": "beskrivelse: \ntype: \nVideofilm: \nStreet View:", "type": "", "Videofilm": "", "Street_View": "", "gx_media_links": null }, "geometry": { "type": "Point", "coordinates": [ 11.493178, 54.771592 ] } },
{ "type": "Feature", "properties": { "Name": "Kragenæs Marina Lystcamp", "description": "beskrivelse: beskrivelse: <br>type: <br>Videofilm: <br>Street View:<br>type: <br>Videofilm: <br>Street View: ", "beskrivelse": "beskrivelse: \ntype: \nVideofilm: \nStreet View:", "type": "", "Videofilm": "", "Street_View": "", "gx_media_links": null }, "geometry": { "type": "Point", "coordinates": [ 11.357284, 54.914481 ] } },
{ "type": "Feature", "properties": { "Name": "DCU-Camping Albuen Strand", "description": "beskrivelse: beskrivelse: <br>type: <br>Videofilm: <br>Street View:<br>type: <br>Videofilm: <br>Street View: ", "beskrivelse": "beskrivelse: \ntype: \nVideofilm: \nStreet View:", "type": "", "Videofilm": "", "Street_View": "", "gx_media_links": null }, "geometry": { "type": "Point", "coordinates": [ 10.981853, 54.791701 ] } },
{ "type": "Feature", "properties": { "Name": "Western Camp", "description": "beskrivelse: beskrivelse: <br>type: <br>Videofilm: <br>Street View:<br>type: <br>Videofilm: <br>Street View: ", "beskrivelse": "beskrivelse: \ntype: \nVideofilm: \nStreet View:", "type": "", "Videofilm": "", "Street_View": "", "gx_media_links": null }, "geometry": { "type": "Point", "coordinates": [ 11.257704, 54.709778 ] } },
{ "type": "Feature", "properties": { "Name": "Nysted Strand Camping", "description": "beskrivelse: beskrivelse: <br>type: <br>Videofilm: <br>Street View:<br>type: <br>Videofilm: <br>Street View: ", "beskrivelse": "beskrivelse: \ntype: \nVideofilm: \nStreet View:", "type": "", "Videofilm": "", "Street_View": "", "gx_media_links": null }, "geometry": { "type": "Point", "coordinates": [ 11.731452, 54.654104 ] } },
{ "type": "Feature", "properties": { "Name": "Ærøskøbing Camping", "description": "beskrivelse: beskrivelse: https:\/\/www.aeroecamp.dk\/<br>type: - 160<br>Videofilm: <br>Street View:<br>type: - 160<br>Videofilm: <br>Street View: ", "beskrivelse": "beskrivelse: https:\/\/www.aeroecamp.dk\/\ntype: - 160\nVideofilm: \nStreet View:", "type": "- 160", "Videofilm": "", "Street_View": "", "gx_media_links": null }, "geometry": { "type": "Point", "coordinates": [ 10.401172, 54.894339 ] } },
{ "type": "Feature", "properties": { "Name": "Marstal Camping", "description": "beskrivelse: beskrivelse: http:\/\/www.marstalcamping.dk\/<br>type: - 160<br>Videofilm: <br>Street View:<br>type: - 160<br>Videofilm: <br>Street View: ", "beskrivelse": "beskrivelse: http:\/\/www.marstalcamping.dk\/\ntype: - 160\nVideofilm: \nStreet View:", "type": "- 160", "Videofilm": "", "Street_View": "", "gx_media_links": null }, "geometry": { "type": "Point", "coordinates": [ 10.518218, 54.846587 ] } },
{ "type": "Feature", "properties": { "Name": "Feriepark Langeland - Ristinge Camping", "description": "beskrivelse: beskrivelse: <br>type: <br>Videofilm: <br>Street View:<br>type: <br>Videofilm: <br>Street View: ", "beskrivelse": "beskrivelse: \ntype: \nVideofilm: \nStreet View:", "type": "", "Videofilm": "", "Street_View": "", "gx_media_links": null }, "geometry": { "type": "Point", "coordinates": [ 10.640436, 54.820137 ] } },
{ "type": "Feature", "properties": { "Name": "Feriepark Langeland - Emmerbølle Strand Camping", "description": "beskrivelse: beskrivelse: <br>type: - 160<br>Videofilm: <br>Street View:<br>type: - 160<br>Videofilm: <br>Street View: ", "beskrivelse": "beskrivelse: \ntype: - 160\nVideofilm: \nStreet View:", "type": "- 160", "Videofilm": "", "Street_View": "", "gx_media_links": null }, "geometry": { "type": "Point", "coordinates": [ 10.849553, 55.033275 ] } },
{ "type": "Feature", "properties": { "Name": "Rudkøbing Camping \/ Bed & Breakfast", "description": "beskrivelse: beskrivelse: <br>type: <br>Videofilm: <br>Street View:<br>type: <br>Videofilm: <br>Street View: ", "beskrivelse": "beskrivelse: \ntype: \nVideofilm: \nStreet View:", "type": "", "Videofilm": "", "Street_View": "", "gx_media_links": null }, "geometry": { "type": "Point", "coordinates": [ 10.716732, 54.93404 ] } },
{ "type": "Feature", "properties": { "Name": "Degnehaven", "description": "beskrivelse: beskrivelse: <br>type: - 160<br>Videofilm: <br>Street View:<br>type: - 160<br>Videofilm: <br>Street View: ", "beskrivelse": "beskrivelse: \ntype: - 160\nVideofilm: \nStreet View:", "type": "- 160", "Videofilm": "", "Street_View": "", "gx_media_links": null }, "geometry": { "type": "Point", "coordinates": [ 10.804691, 54.924221 ] } },
{ "type": "Feature", "properties": { "Name": "DCU-Camping Billevænge Strand", "description": "beskrivelse: beskrivelse: <br>type: <br>Videofilm: <br>Street View:<br>type: <br>Videofilm: <br>Street View: ", "beskrivelse": "beskrivelse: \ntype: \nVideofilm: \nStreet View:", "type": "", "Videofilm": "", "Street_View": "", "gx_media_links": null }, "geometry": { "type": "Point", "coordinates": [ 10.817094, 54.923149 ] } },
{ "type": "Feature", "properties": { "Name": "Færgegårdens Camping", "description": "beskrivelse: beskrivelse: <br>type: - 160<br>Videofilm: <br>Street View:<br>type: - 160<br>Videofilm: <br>Street View: ", "beskrivelse": "beskrivelse: \ntype: - 160\nVideofilm: \nStreet View:", "type": "- 160", "Videofilm": "", "Street_View": "", "gx_media_links": null }, "geometry": { "type": "Point", "coordinates": [ 10.828026, 54.932357 ] } },
{ "type": "Feature", "properties": { "Name": "Falster Familiecamping ApS", "description": "beskrivelse: beskrivelse: <br>type: - 160<br>Videofilm: <br>Street View:<br>type: - 160<br>Videofilm: <br>Street View: ", "beskrivelse": "beskrivelse: \ntype: - 160\nVideofilm: \nStreet View:", "type": "- 160", "Videofilm": "", "Street_View": "", "gx_media_links": null }, "geometry": { "type": "Point", "coordinates": [ 12.077138, 54.812519 ] } },
{ "type": "Feature", "properties": { "Name": "Møn camping", "description": "beskrivelse: beskrivelse: <br>type: <br>Videofilm: <br>Street View:<br>type: <br>Videofilm: <br>Street View: ", "beskrivelse": "beskrivelse: \ntype: \nVideofilm: \nStreet View:", "type": "", "Videofilm": "", "Street_View": "", "gx_media_links": null }, "geometry": { "type": "Point", "coordinates": [ 12.152672, 54.882985 ] } },
{ "type": "Feature", "properties": { "Name": "Møn Strandcamping - Ulvshale", "description": "beskrivelse: beskrivelse: <br>type: <br>Videofilm: <br>Street View:<br>type: <br>Videofilm: <br>Street View: ", "beskrivelse": "beskrivelse: \ntype: \nVideofilm: \nStreet View:", "type": "", "Videofilm": "", "Street_View": "", "gx_media_links": null }, "geometry": { "type": "Point", "coordinates": [ 12.279385, 55.039157 ] } },
{ "type": "Feature", "properties": { "Name": "Møns Klint Resort og Camping", "description": "beskrivelse: beskrivelse: <br>type: <br>Videofilm: <br>Street View:<br>type: <br>Videofilm: <br>Street View: ", "beskrivelse": "beskrivelse: \ntype: \nVideofilm: \nStreet View:", "type": "", "Videofilm": "", "Street_View": "", "gx_media_links": null }, "geometry": { "type": "Point", "coordinates": [ 12.522842, 54.97933 ] } },
{ "type": "Feature", "properties": { "Name": "Keldby Camping Møn v\/Niels Fogh Johansson", "description": "beskrivelse: beskrivelse: <br>type: <br>Videofilm: <br>Street View:<br>type: <br>Videofilm: <br>Street View: ", "beskrivelse": "beskrivelse: \ntype: \nVideofilm: \nStreet View:", "type": "", "Videofilm": "", "Street_View": "", "gx_media_links": null }, "geometry": { "type": "Point", "coordinates": [ 12.356876, 54.991301 ] } },
{ "type": "Feature", "properties": { "Name": "Stege Camping", "description": "beskrivelse: beskrivelse: <br>type: <br>Videofilm: <br>Street View:<br>type: <br>Videofilm: <br>Street View: ", "beskrivelse": "beskrivelse: \ntype: \nVideofilm: \nStreet View:", "type": "", "Videofilm": "", "Street_View": "", "gx_media_links": null }, "geometry": { "type": "Point", "coordinates": [ 12.286438, 54.990139 ] } },
{ "type": "Feature", "properties": { "Name": "Hasle Camping", "description": "beskrivelse: beskrivelse: http:\/\/www.hasle-camping.dk\/<br>type: -120<br>Videofilm: <br>Street View:<br>type: -120<br>Videofilm: <br>Street View: ", "beskrivelse": "beskrivelse: http:\/\/www.hasle-camping.dk\/\ntype: -120\nVideofilm: \nStreet View:", "type": "-120", "Videofilm": "", "Street_View": "", "gx_media_links": null }, "geometry": { "type": "Point", "coordinates": [ 14.707138, 55.178731 ] } },
{ "type": "Feature", "properties": { "Name": "Sandkaas Familiecamping", "description": "beskrivelse: beskrivelse: <br>type: <br>Videofilm: <br>Street View:<br>type: <br>Videofilm: <br>Street View: ", "beskrivelse": "beskrivelse: \ntype: \nVideofilm: \nStreet View:", "type": "", "Videofilm": "", "Street_View": "", "gx_media_links": null }, "geometry": { "type": "Point", "coordinates": [ 14.811712, 55.263682 ] } },
{ "type": "Feature", "properties": { "Name": "Sannes Familiecamping", "description": "beskrivelse: beskrivelse: <br>type: <br>Videofilm: <br>Street View:<br>type: <br>Videofilm: <br>Street View: ", "beskrivelse": "beskrivelse: \ntype: \nVideofilm: \nStreet View:", "type": "", "Videofilm": "", "Street_View": "", "gx_media_links": null }, "geometry": { "type": "Point", "coordinates": [ 14.986532, 55.195789 ] } },
{ "type": "Feature", "properties": { "Name": "Gudhjem Camping Bornholm", "description": "beskrivelse: beskrivelse: <br>type: <br>Videofilm: <br>Street View:<br>type: <br>Videofilm: <br>Street View: ", "beskrivelse": "beskrivelse: \ntype: \nVideofilm: \nStreet View:", "type": "", "Videofilm": "", "Street_View": "", "gx_media_links": null }, "geometry": { "type": "Point", "coordinates": [ 14.977101, 55.20741 ] } },
{ "type": "Feature", "properties": { "Name": "Hullehavn Camping", "description": "beskrivelse: beskrivelse: <br>type: <br>Videofilm: <br>Street View:<br>type: <br>Videofilm: <br>Street View: ", "beskrivelse": "beskrivelse: \ntype: \nVideofilm: \nStreet View:", "type": "", "Videofilm": "", "Street_View": "", "gx_media_links": null }, "geometry": { "type": "Point", "coordinates": [ 15.150688, 55.13081 ] } },
{ "type": "Feature", "properties": { "Name": "Møllers Dueodde Camping", "description": "beskrivelse: beskrivelse: <br>type: <br>Videofilm: <br>Street View:<br>type: <br>Videofilm: <br>Street View: ", "beskrivelse": "beskrivelse: \ntype: \nVideofilm: \nStreet View:", "type": "", "Videofilm": "", "Street_View": "", "gx_media_links": null }, "geometry": { "type": "Point", "coordinates": [ 15.078891, 54.995801 ] } },
{ "type": "Feature", "properties": { "Name": "Dueodde Familiecamping & Hostel", "description": "beskrivelse: beskrivelse: <br>type: <br>Videofilm: <br>Street View:<br>type: <br>Videofilm: <br>Street View: ", "beskrivelse": "beskrivelse: \ntype: \nVideofilm: \nStreet View:", "type": "", "Videofilm": "", "Street_View": "", "gx_media_links": null }, "geometry": { "type": "Point", "coordinates": [ 15.087146, 54.995539 ] } },
{ "type": "Feature", "properties": { "Name": "Bogense Strand Camping", "description": "beskrivelse: beskrivelse: <br>type: <br>Videofilm: <br>Street View:<br>type: <br>Videofilm: <br>Street View: ", "beskrivelse": "beskrivelse: \ntype: \nVideofilm: \nStreet View:", "type": "", "Videofilm": "", "Street_View": "", "gx_media_links": null }, "geometry": { "type": "Point", "coordinates": [ 10.085279, 55.56169 ] } },
{ "type": "Feature", "properties": { "Name": "Hasmark Strand Camping", "description": "beskrivelse: beskrivelse: <br>type: <br>Videofilm: <br>Street View:<br>type: <br>Videofilm: <br>Street View: ", "beskrivelse": "beskrivelse: \ntype: \nVideofilm: \nStreet View:", "type": "", "Videofilm": "", "Street_View": "", "gx_media_links": null }, "geometry": { "type": "Point", "coordinates": [ 10.455518, 55.562755 ] } },
{ "type": "Feature", "properties": { "Name": "Camp Hverringe", "description": "beskrivelse: beskrivelse: <br>type: <br>Videofilm: <br>Street View:<br>type: <br>Videofilm: <br>Street View: ", "beskrivelse": "beskrivelse: \ntype: \nVideofilm: \nStreet View:", "type": "", "Videofilm": "", "Street_View": "", "gx_media_links": null }, "geometry": { "type": "Point", "coordinates": [ 10.712059, 55.509139 ] } },
{ "type": "Feature", "properties": { "Name": "DCU-Odense City Camp", "description": "beskrivelse: beskrivelse: <br>type: - 160<br>Videofilm: <br>Street View:<br>type: - 160<br>Videofilm: <br>Street View: ", "beskrivelse": "beskrivelse: \ntype: - 160\nVideofilm: \nStreet View:", "type": "- 160", "Videofilm": "", "Street_View": "", "gx_media_links": null }, "geometry": { "type": "Point", "coordinates": [ 10.392838, 55.369649 ] } },
{ "type": "Feature", "properties": { "Name": "Ronæs Strand Camping A\/S", "description": "beskrivelse: beskrivelse: <br>type: <br>Videofilm: <br>Street View:<br>type: <br>Videofilm: <br>Street View: ", "beskrivelse": "beskrivelse: \ntype: \nVideofilm: \nStreet View:", "type": "", "Videofilm": "", "Street_View": "", "gx_media_links": null }, "geometry": { "type": "Point", "coordinates": [ 9.82374, 55.439986 ] } },
{ "type": "Feature", "properties": { "Name": "Sandager Næs Camping", "description": "beskrivelse: beskrivelse: <br>type: <br>Videofilm: <br>Street View:<br>type: <br>Videofilm: <br>Street View: ", "beskrivelse": "beskrivelse: \ntype: \nVideofilm: \nStreet View:", "type": "", "Videofilm": "", "Street_View": "", "gx_media_links": null }, "geometry": { "type": "Point", "coordinates": [ 9.890277, 55.334136 ] } },
{ "type": "Feature", "properties": { "Name": "Købingsmark Strand Camping", "description": "beskrivelse: beskrivelse: http:\/\/www.koebingsmarkcamping.dk\/<br>type: -120<br>Videofilm: <br>Street View:<br>type: -120<br>Videofilm: <br>Street View: ", "beskrivelse": "beskrivelse: http:\/\/www.koebingsmarkcamping.dk\/\ntype: -120\nVideofilm: \nStreet View:", "type": "-120", "Videofilm": "", "Street_View": "", "gx_media_links": null }, "geometry": { "type": "Point", "coordinates": [ 9.728215, 55.078605 ] } },
{ "type": "Feature", "properties": { "Name": "Lavensby Strand Camping", "description": "beskrivelse: beskrivelse: <br>type: - 160<br>Videofilm: <br>Street View:<br>type: - 160<br>Videofilm: <br>Street View: ", "beskrivelse": "beskrivelse: \ntype: - 160\nVideofilm: \nStreet View:", "type": "- 160", "Videofilm": "", "Street_View": "", "gx_media_links": null }, "geometry": { "type": "Point", "coordinates": [ 9.795719, 55.070914 ] } },
{ "type": "Feature", "properties": { "Name": "Madeskov Camping", "description": "beskrivelse: beskrivelse: <br>type: <br>Videofilm: <br>Street View:<br>type: <br>Videofilm: <br>Street View: ", "beskrivelse": "beskrivelse: \ntype: \nVideofilm: \nStreet View:", "type": "", "Videofilm": "", "Street_View": "", "gx_media_links": null }, "geometry": { "type": "Point", "coordinates": [ 9.845099, 54.935698 ] } },
{ "type": "Feature", "properties": { "Name": "Sønderborg Camping I\/S", "description": "beskrivelse: beskrivelse: <br>type: <br>Videofilm: <br>Street View:<br>type: <br>Videofilm: <br>Street View: ", "beskrivelse": "beskrivelse: \ntype: \nVideofilm: \nStreet View:", "type": "", "Videofilm": "", "Street_View": "", "gx_media_links": null }, "geometry": { "type": "Point", "coordinates": [ 9.798175, 54.901221 ] } },
{ "type": "Feature", "properties": { "Name": "Sønderby Strand Camping", "description": "beskrivelse: beskrivelse: <br>type: <br>Videofilm: <br>Street View:<br>type: <br>Videofilm: <br>Street View: ", "beskrivelse": "beskrivelse: \ntype: \nVideofilm: \nStreet View:", "type": "", "Videofilm": "", "Street_View": "", "gx_media_links": null }, "geometry": { "type": "Point", "coordinates": [ 9.891882, 54.865818 ] } },
{ "type": "Feature", "properties": { "Name": "Drejby Strandcamping", "description": "beskrivelse: beskrivelse: <br>type: <br>Videofilm: <br>Street View:<br>type: <br>Videofilm: <br>Street View: ", "beskrivelse": "beskrivelse: \ntype: \nVideofilm: \nStreet View:", "type": "", "Videofilm": "", "Street_View": "", "gx_media_links": null }, "geometry": { "type": "Point", "coordinates": [ 9.999523, 54.860862 ] } },
{ "type": "Feature", "properties": { "Name": "Lysabildskov Camping og Feriecenter", "description": "beskrivelse: beskrivelse: <br>type: <br>Videofilm: <br>Street View:<br>type: <br>Videofilm: <br>Street View: ", "beskrivelse": "beskrivelse: \ntype: \nVideofilm: \nStreet View:", "type": "", "Videofilm": "", "Street_View": "", "gx_media_links": null }, "geometry": { "type": "Point", "coordinates": [ 10.054989, 54.889743 ] } },
{ "type": "Feature", "properties": { "Name": "Lillebælt Camping", "description": "beskrivelse: beskrivelse: <br>type: <br>Videofilm: <br>Street View:<br>type: <br>Videofilm: <br>Street View: ", "beskrivelse": "beskrivelse: \ntype: \nVideofilm: \nStreet View:", "type": "", "Videofilm": "", "Street_View": "", "gx_media_links": null }, "geometry": { "type": "Point", "coordinates": [ 9.990097, 54.985772 ] } },
{ "type": "Feature", "properties": { "Name": "Naldmose Strand Camping", "description": "beskrivelse: beskrivelse: <br>type: <br>Videofilm: <br>Street View:<br>type: <br>Videofilm: <br>Street View: ", "beskrivelse": "beskrivelse: \ntype: \nVideofilm: \nStreet View:", "type": "", "Videofilm": "", "Street_View": "", "gx_media_links": null }, "geometry": { "type": "Point", "coordinates": [ 9.976915, 54.995023 ] } },
{ "type": "Feature", "properties": { "Name": "Asaa Camping & Hytteferie", "description": "beskrivelse: beskrivelse: <br>type: <br>Videofilm: <br>Street View:<br>type: <br>Videofilm: <br>Street View: ", "beskrivelse": "beskrivelse: \ntype: \nVideofilm: \nStreet View:", "type": "", "Videofilm": "", "Street_View": "", "gx_media_links": null }, "geometry": { "type": "Point", "coordinates": [ 10.402329, 57.144951 ] } },
{ "type": "Feature", "properties": { "Name": "Svalereden Camping Og Hytteby", "description": "beskrivelse: beskrivelse: <br>type: <br>Videofilm: <br>Street View:<br>type: <br>Videofilm: <br>Street View: ", "beskrivelse": "beskrivelse: \ntype: \nVideofilm: \nStreet View:", "type": "", "Videofilm": "", "Street_View": "", "gx_media_links": null }, "geometry": { "type": "Point", "coordinates": [ 10.509114, 57.359965 ] } },
{ "type": "Feature", "properties": { "Name": "Råbjerg Mile Camping", "description": "beskrivelse: beskrivelse: <br>type: <br>Videofilm: <br>Street View:<br>type: <br>Videofilm: <br>Street View: ", "beskrivelse": "beskrivelse: \ntype: \nVideofilm: \nStreet View:", "type": "", "Videofilm": "", "Street_View": "", "gx_media_links": null }, "geometry": { "type": "Point", "coordinates": [ 10.452279, 57.653684 ] } },
{ "type": "Feature", "properties": { "Name": "A35 Sindal Camping Danmark og Kanoudlejning", "description": "beskrivelse: beskrivelse: <br>type: - 160<br>Videofilm: <br>Street View:<br>type: - 160<br>Videofilm: <br>Street View: ", "beskrivelse": "beskrivelse: \ntype: - 160\nVideofilm: \nStreet View:", "type": "- 160", "Videofilm": "", "Street_View": "", "gx_media_links": null }, "geometry": { "type": "Point", "coordinates": [ 10.178004, 57.467971 ] } },
{ "type": "Feature", "properties": { "Name": "Tolne Camping", "description": "beskrivelse: beskrivelse: <br>type: <br>Videofilm: <br>Street View:<br>type: <br>Videofilm: <br>Street View: ", "beskrivelse": "beskrivelse: \ntype: \nVideofilm: \nStreet View:", "type": "", "Videofilm": "", "Street_View": "", "gx_media_links": null }, "geometry": { "type": "Point", "coordinates": [ 10.301527, 57.48678 ] } },
{ "type": "Feature", "properties": { "Name": "Skiveren camping", "description": "beskrivelse: beskrivelse: <br>type: <br>Videofilm: <br>Street View:<br>type: <br>Videofilm: <br>Street View: ", "beskrivelse": "beskrivelse: \ntype: \nVideofilm: \nStreet View:", "type": "", "Videofilm": "", "Street_View": "", "gx_media_links": null }, "geometry": { "type": "Point", "coordinates": [ 10.279515, 57.61639 ] } },
{ "type": "Feature", "properties": { "Name": "Aabo Camping Vandland", "description": "beskrivelse: beskrivelse: <br>type: <br>Videofilm: <br>Street View:<br>type: <br>Videofilm: <br>Street View: ", "beskrivelse": "beskrivelse: \ntype: \nVideofilm: \nStreet View:", "type": "", "Videofilm": "", "Street_View": "", "gx_media_links": null }, "geometry": { "type": "Point", "coordinates": [ 10.183952, 57.585109 ] } },
{ "type": "Feature", "properties": { "Name": "Tornby Strand Camping", "description": "beskrivelse: beskrivelse: <br>type: <br>Videofilm: <br>Street View:<br>type: <br>Videofilm: <br>Street View: ", "beskrivelse": "beskrivelse: \ntype: \nVideofilm: \nStreet View:", "type": "", "Videofilm": "", "Street_View": "", "gx_media_links": null }, "geometry": { "type": "Point", "coordinates": [ 9.932774, 57.554956 ] } },
{ "type": "Feature", "properties": { "Name": "Grønhøj Strand Camping", "description": "beskrivelse: beskrivelse: https:\/\/www.gronhoj-strand-camping.dk\/<br>type: -120<br>Videofilm: <br>Street View:<br>type: -120<br>Videofilm: <br>Street View: ", "beskrivelse": "beskrivelse: https:\/\/www.gronhoj-strand-camping.dk\/\ntype: -120\nVideofilm: \nStreet View:", "type": "-120", "Videofilm": "", "Street_View": "", "gx_media_links": null }, "geometry": { "type": "Point", "coordinates": [ 9.676328, 57.320843 ] } },
{ "type": "Feature", "properties": { "Name": "Rødhus Klit Camping", "description": "beskrivelse: beskrivelse: <br>type: <br>Videofilm: <br>Street View:<br>type: <br>Videofilm: <br>Street View: ", "beskrivelse": "beskrivelse: \ntype: \nVideofilm: \nStreet View:", "type": "", "Videofilm": "", "Street_View": "", "gx_media_links": null }, "geometry": { "type": "Point", "coordinates": [ 9.516065, 57.201159 ] } },
{ "type": "Feature", "properties": { "Name": "Terrassen Camping", "description": "beskrivelse: beskrivelse: <br>type: <br>Videofilm: <br>Street View:<br>type: <br>Videofilm: <br>Street View: ", "beskrivelse": "beskrivelse: \ntype: \nVideofilm: \nStreet View:", "type": "", "Videofilm": "", "Street_View": "", "gx_media_links": null }, "geometry": { "type": "Point", "coordinates": [ 9.710517, 56.124296 ] } },
{ "type": "Feature", "properties": { "Name": "Birkhede Camping", "description": "beskrivelse: beskrivelse: <br>type: <br>Videofilm: <br>Street View:<br>type: <br>Videofilm: <br>Street View: ", "beskrivelse": "beskrivelse: \ntype: \nVideofilm: \nStreet View:", "type": "", "Videofilm": "", "Street_View": "", "gx_media_links": null }, "geometry": { "type": "Point", "coordinates": [ 9.744884, 56.103617 ] } },
{ "type": "Feature", "properties": { "Name": "Askehøj Camping", "description": "beskrivelse: beskrivelse: <br>type: <br>Videofilm: <br>Street View:<br>type: <br>Videofilm: <br>Street View: ", "beskrivelse": "beskrivelse: \ntype: \nVideofilm: \nStreet View:", "type": "", "Videofilm": "", "Street_View": "", "gx_media_links": null }, "geometry": { "type": "Point", "coordinates": [ 9.690384, 56.136107 ] } },
{ "type": "Feature", "properties": { "Name": "Krik Vig Camping", "description": "beskrivelse: beskrivelse: <br>type: <br>Videofilm: <br>Street View:<br>type: <br>Videofilm: <br>Street View: ", "beskrivelse": "beskrivelse: \ntype: \nVideofilm: \nStreet View:", "type": "", "Videofilm": "", "Street_View": "", "gx_media_links": null }, "geometry": { "type": "Point", "coordinates": [ 8.262196, 56.778951 ] } },
{ "type": "Feature", "properties": { "Name": "Stenbjerg Camping", "description": "beskrivelse: beskrivelse: https:\/\/www.stenbjergcamping.dk\/<br>type: -120<br>Videofilm: <br>Street View:<br>type: -120<br>Videofilm: <br>Street View: ", "beskrivelse": "beskrivelse: https:\/\/www.stenbjergcamping.dk\/\ntype: -120\nVideofilm: \nStreet View:", "type": "-120", "Videofilm": "", "Street_View": "", "gx_media_links": null }, "geometry": { "type": "Point", "coordinates": [ 8.363698, 56.918634 ] } },
{ "type": "Feature", "properties": { "Name": "Strandgaardens Camping", "description": "beskrivelse: beskrivelse: <br>type: <br>Videofilm: <br>Street View:<br>type: <br>Videofilm: <br>Street View: ", "beskrivelse": "beskrivelse: \ntype: \nVideofilm: \nStreet View:", "type": "", "Videofilm": "", "Street_View": "", "gx_media_links": null }, "geometry": { "type": "Point", "coordinates": [ 8.366691, 56.954104 ] } },
{ "type": "Feature", "properties": { "Name": "Nystrup Camping Klitmøller", "description": "beskrivelse: beskrivelse: <br>type: <br>Videofilm: <br>Street View:<br>type: <br>Videofilm: <br>Street View: ", "beskrivelse": "beskrivelse: \ntype: \nVideofilm: \nStreet View:", "type": "", "Videofilm": "", "Street_View": "", "gx_media_links": null }, "geometry": { "type": "Point", "coordinates": [ 8.478939, 57.033152 ] } },
{ "type": "Feature", "properties": { "Name": "Hanstholm Camping", "description": "beskrivelse: beskrivelse: <br>type: <br>Videofilm: <br>Street View:<br>type: <br>Videofilm: <br>Street View: ", "beskrivelse": "beskrivelse: \ntype: \nVideofilm: \nStreet View:", "type": "", "Videofilm": "", "Street_View": "", "gx_media_links": null }, "geometry": { "type": "Point", "coordinates": [ 8.666898, 57.109205 ] } },
{ "type": "Feature", "properties": { "Name": "Thisted Camping I\/S", "description": "beskrivelse: beskrivelse: <br>type: <br>Videofilm: <br>Street View:<br>type: <br>Videofilm: <br>Street View: ", "beskrivelse": "beskrivelse: \ntype: \nVideofilm: \nStreet View:", "type": "", "Videofilm": "", "Street_View": "", "gx_media_links": null }, "geometry": { "type": "Point", "coordinates": [ 8.71311, 56.952616 ] } },
{ "type": "Feature", "properties": { "Name": "Auning Camping ”Djurslands Perle”", "description": "beskrivelse: beskrivelse: <br>type: <br>Videofilm: <br>Street View:<br>type: <br>Videofilm: <br>Street View: ", "beskrivelse": "beskrivelse: \ntype: \nVideofilm: \nStreet View:", "type": "", "Videofilm": "", "Street_View": "", "gx_media_links": null }, "geometry": { "type": "Point", "coordinates": [ 10.384343, 56.435148 ] } },
{ "type": "Feature", "properties": { "Name": "Dalgård Camping", "description": "beskrivelse: beskrivelse: <br>type: <br>Videofilm: <br>Street View:<br>type: <br>Videofilm: <br>Street View: ", "beskrivelse": "beskrivelse: \ntype: \nVideofilm: \nStreet View:", "type": "", "Videofilm": "", "Street_View": "", "gx_media_links": null }, "geometry": { "type": "Point", "coordinates": [ 10.544363, 56.50976 ] } },
{ "type": "Feature", "properties": { "Name": "Grenaa Strand Camping", "description": "beskrivelse: beskrivelse: <br>type: <br>Videofilm: <br>Street View:<br>type: <br>Videofilm: <br>Street View: ", "beskrivelse": "beskrivelse: \ntype: \nVideofilm: \nStreet View:", "type": "", "Videofilm": "", "Street_View": "", "gx_media_links": null }, "geometry": { "type": "Point", "coordinates": [ 10.912219, 56.388906 ] } },
{ "type": "Feature", "properties": { "Name": "Elsegårde Camping - Ebeltoft - Djursland", "description": "beskrivelse: beskrivelse: <br>type: <br>Videofilm: <br>Street View:<br>type: <br>Videofilm: <br>Street View: ", "beskrivelse": "beskrivelse: \ntype: \nVideofilm: \nStreet View:", "type": "", "Videofilm": "", "Street_View": "", "gx_media_links": null }, "geometry": { "type": "Point", "coordinates": [ 10.724323, 56.168146 ] } },
{ "type": "Feature", "properties": { "Name": "DCU-Camping Mols", "description": "beskrivelse: beskrivelse: <br>type: <br>Videofilm: <br>Street View:<br>type: <br>Videofilm: <br>Street View: ", "beskrivelse": "beskrivelse: \ntype: \nVideofilm: \nStreet View:", "type": "", "Videofilm": "", "Street_View": "", "gx_media_links": null }, "geometry": { "type": "Point", "coordinates": [ 10.687385, 56.213616 ] } },
{ "type": "Feature", "properties": { "Name": "Ebeltoft Strand Camping", "description": "beskrivelse: beskrivelse: <br>type: <br>Videofilm: <br>Street View:<br>type: <br>Videofilm: <br>Street View: ", "beskrivelse": "beskrivelse: \ntype: \nVideofilm: \nStreet View:", "type": "", "Videofilm": "", "Street_View": "", "gx_media_links": null }, "geometry": { "type": "Point", "coordinates": [ 10.678536, 56.210061 ] } },
{ "type": "Feature", "properties": { "Name": "Sølystgård Camping Mols", "description": "beskrivelse: beskrivelse: <br>type: - 160<br>Videofilm: <br>Street View:<br>type: - 160<br>Videofilm: <br>Street View: ", "beskrivelse": "beskrivelse: \ntype: - 160\nVideofilm: \nStreet View:", "type": "- 160", "Videofilm": "", "Street_View": "", "gx_media_links": null }, "geometry": { "type": "Point", "coordinates": [ 10.533915, 56.17556 ] } },
{ "type": "Feature", "properties": { "Name": "Krakær Camping", "description": "beskrivelse: beskrivelse: <br>type: <br>Videofilm: <br>Street View:<br>type: <br>Videofilm: <br>Street View: ", "beskrivelse": "beskrivelse: \ntype: \nVideofilm: \nStreet View:", "type": "", "Videofilm": "", "Street_View": "", "gx_media_links": null }, "geometry": { "type": "Point", "coordinates": [ 10.602379, 56.25251 ] } },
{ "type": "Feature", "properties": { "Name": "Hestehaven Camping", "description": "beskrivelse: beskrivelse: <br>type: <br>Videofilm: <br>Street View:<br>type: <br>Videofilm: <br>Street View: ", "beskrivelse": "beskrivelse: \ntype: \nVideofilm: \nStreet View:", "type": "", "Videofilm": "", "Street_View": "", "gx_media_links": null }, "geometry": { "type": "Point", "coordinates": [ 10.591122, 56.512072 ] } },
{ "type": "Feature", "properties": { "Name": "Fjellerup Strands Camping", "description": "beskrivelse: beskrivelse: <br>type: <br>Videofilm: <br>Street View:<br>type: <br>Videofilm: <br>Street View: ", "beskrivelse": "beskrivelse: \ntype: \nVideofilm: \nStreet View:", "type": "", "Videofilm": "", "Street_View": "", "gx_media_links": null }, "geometry": { "type": "Point", "coordinates": [ 10.590668, 56.516517 ] } },
{ "type": "Feature", "properties": { "Name": "Albertinelund Camping", "description": "beskrivelse: beskrivelse: <br>type: <br>Videofilm: <br>Street View:<br>type: <br>Videofilm: <br>Street View: ", "beskrivelse": "beskrivelse: \ntype: \nVideofilm: \nStreet View:", "type": "", "Videofilm": "", "Street_View": "", "gx_media_links": null }, "geometry": { "type": "Point", "coordinates": [ 10.744221, 56.528866 ] } },
{ "type": "Feature", "properties": { "Name": "DCU-Camping Gjerrild Nordstrand", "description": "beskrivelse: beskrivelse: <br>type: <br>Videofilm: <br>Street View:<br>type: <br>Videofilm: <br>Street View: ", "beskrivelse": "beskrivelse: \ntype: \nVideofilm: \nStreet View:", "type": "", "Videofilm": "", "Street_View": "", "gx_media_links": null }, "geometry": { "type": "Point", "coordinates": [ 10.810304, 56.528318 ] } },
{ "type": "Feature", "properties": { "Name": "Randers Fjord Camping", "description": "beskrivelse: beskrivelse: <br>type: <br>Videofilm: <br>Street View:<br>type: <br>Videofilm: <br>Street View: ", "beskrivelse": "beskrivelse: \ntype: \nVideofilm: \nStreet View:", "type": "", "Videofilm": "", "Street_View": "", "gx_media_links": null }, "geometry": { "type": "Point", "coordinates": [ 10.293131, 56.610047 ] } },
{ "type": "Feature", "properties": { "Name": "Fornæs Camping", "description": "beskrivelse: beskrivelse: <br>type: <br>Videofilm: <br>Street View:<br>type: <br>Videofilm: <br>Street View: ", "beskrivelse": "beskrivelse: \ntype: \nVideofilm: \nStreet View:", "type": "", "Videofilm": "", "Street_View": "", "gx_media_links": null }, "geometry": { "type": "Point", "coordinates": [ 10.940194, 56.453805 ] } },
{ "type": "Feature", "properties": { "Name": "Hou Strandcamping A\/S", "description": "beskrivelse: beskrivelse: <br>type: <br>Videofilm: <br>Street View:<br>type: <br>Videofilm: <br>Street View: ", "beskrivelse": "beskrivelse: \ntype: \nVideofilm: \nStreet View:", "type": "", "Videofilm": "", "Street_View": "", "gx_media_links": null }, "geometry": { "type": "Point", "coordinates": [ 10.253676, 55.926519 ] } },
{ "type": "Feature", "properties": { "Name": "Hølken Camping \/nu Odder Strand Camping", "description": "beskrivelse: beskrivelse: <br>type: <br>Videofilm: <br>Street View:<br>type: <br>Videofilm: <br>Street View: ", "beskrivelse": "beskrivelse: \ntype: \nVideofilm: \nStreet View:", "type": "", "Videofilm": "", "Street_View": "", "gx_media_links": null }, "geometry": { "type": "Point", "coordinates": [ 10.257265, 55.934823 ] } },
{ "type": "Feature", "properties": { "Name": "Saksild Strand Camping & Cottages", "description": "beskrivelse: beskrivelse: <br>type: <br>Videofilm: <br>Street View:<br>type: <br>Videofilm: <br>Street View: ", "beskrivelse": "beskrivelse: \ntype: \nVideofilm: \nStreet View:", "type": "", "Videofilm": "", "Street_View": "", "gx_media_links": null }, "geometry": { "type": "Point", "coordinates": [ 10.247855, 55.979704 ] } },
{ "type": "Feature", "properties": { "Name": "Husodde Strand Camping", "description": "beskrivelse: beskrivelse: <br>type: <br>Videofilm: <br>Street View:<br>type: <br>Videofilm: <br>Street View: ", "beskrivelse": "beskrivelse: \ntype: \nVideofilm: \nStreet View:", "type": "", "Videofilm": "", "Street_View": "", "gx_media_links": null }, "geometry": { "type": "Point", "coordinates": [ 9.917749, 55.859102 ] } },
{ "type": "Feature", "properties": { "Name": "Bygholm Sø Camping", "description": "beskrivelse: beskrivelse: <br>type: <br>Videofilm: <br>Street View:<br>type: <br>Videofilm: <br>Street View: ", "beskrivelse": "beskrivelse: \ntype: \nVideofilm: \nStreet View:", "type": "", "Videofilm": "", "Street_View": "", "gx_media_links": null }, "geometry": { "type": "Point", "coordinates": [ 9.818734, 55.871262 ] } },
{ "type": "Feature", "properties": { "Name": "Vejlefjord Camping Ved Bente Hansen", "description": "beskrivelse: beskrivelse: <br>type: - 160<br>Videofilm: <br>Street View:<br>type: - 160<br>Videofilm: <br>Street View: ", "beskrivelse": "beskrivelse: \ntype: - 160\nVideofilm: \nStreet View:", "type": "- 160", "Videofilm": "", "Street_View": "", "gx_media_links": null }, "geometry": { "type": "Point", "coordinates": [ 9.695506, 55.709181 ] } },
{ "type": "Feature", "properties": { "Name": "Fårup Sø Camping", "description": "beskrivelse: beskrivelse: <br>type: <br>Videofilm: <br>Street View:<br>type: <br>Videofilm: <br>Street View: ", "beskrivelse": "beskrivelse: \ntype: \nVideofilm: \nStreet View:", "type": "", "Videofilm": "", "Street_View": "", "gx_media_links": null }, "geometry": { "type": "Point", "coordinates": [ 9.417386, 55.736126 ] } },
{ "type": "Feature", "properties": { "Name": "Vejle City Camping", "description": "beskrivelse: beskrivelse: <br>type: <br>Videofilm: <br>Street View:<br>type: <br>Videofilm: <br>Street View: ", "beskrivelse": "beskrivelse: \ntype: \nVideofilm: \nStreet View:", "type": "", "Videofilm": "", "Street_View": "", "gx_media_links": null }, "geometry": { "type": "Point", "coordinates": [ 9.561539, 55.714506 ] } },
{ "type": "Feature", "properties": { "Name": "Mørkholt Strand Camping", "description": "beskrivelse: beskrivelse: <br>type: <br>Videofilm: <br>Street View:<br>type: <br>Videofilm: <br>Street View: ", "beskrivelse": "beskrivelse: \ntype: \nVideofilm: \nStreet View:", "type": "", "Videofilm": "", "Street_View": "", "gx_media_links": null }, "geometry": { "type": "Point", "coordinates": [ 9.725963, 55.656866 ] } },
{ "type": "Feature", "properties": { "Name": "Hagen Strand Camping", "description": "beskrivelse: beskrivelse: <br>type: <br>Videofilm: <br>Street View:<br>type: <br>Videofilm: <br>Street View: ", "beskrivelse": "beskrivelse: \ntype: \nVideofilm: \nStreet View:", "type": "", "Videofilm": "", "Street_View": "", "gx_media_links": null }, "geometry": { "type": "Point", "coordinates": [ 9.729334, 55.658962 ] } },
{ "type": "Feature", "properties": { "Name": "Galsklint Camping", "description": "beskrivelse: beskrivelse: <br>type: <br>Videofilm: <br>Street View:<br>type: <br>Videofilm: <br>Street View: ", "beskrivelse": "beskrivelse: \ntype: \nVideofilm: \nStreet View:", "type": "", "Videofilm": "", "Street_View": "", "gx_media_links": null }, "geometry": { "type": "Point", "coordinates": [ 9.681919, 55.516888 ] } },
{ "type": "Feature", "properties": { "Name": "Gl. Ålbo Camping", "description": "beskrivelse: beskrivelse: <br>type: <br>Videofilm: <br>Street View:<br>type: <br>Videofilm: <br>Street View: ", "beskrivelse": "beskrivelse: \ntype: \nVideofilm: \nStreet View:", "type": "", "Videofilm": "", "Street_View": "", "gx_media_links": null }, "geometry": { "type": "Point", "coordinates": [ 9.679909, 55.467823 ] } },
{ "type": "Feature", "properties": { "Name": "Hejlsminde Strand Camping", "description": "beskrivelse: beskrivelse: <br>type: - 160<br>Videofilm: <br>Street View:<br>type: - 160<br>Videofilm: <br>Street View: ", "beskrivelse": "beskrivelse: \ntype: - 160\nVideofilm: \nStreet View:", "type": "- 160", "Videofilm": "", "Street_View": "", "gx_media_links": null }, "geometry": { "type": "Point", "coordinates": [ 9.600394, 55.367951 ] } },
{ "type": "Feature", "properties": { "Name": "skamling camping", "description": "beskrivelse: beskrivelse: <br>type: - 160<br>Videofilm: <br>Street View:<br>type: - 160<br>Videofilm: <br>Street View: ", "beskrivelse": "beskrivelse: \ntype: - 160\nVideofilm: \nStreet View:", "type": "- 160", "Videofilm": "", "Street_View": "", "gx_media_links": null }, "geometry": { "type": "Point", "coordinates": [ 9.56314, 55.420551 ] } },
{ "type": "Feature", "properties": { "Name": "Stensager Strand Camping v\/Anders Gustafsson", "description": "beskrivelse: beskrivelse: <br>type: <br>Videofilm: <br>Street View:<br>type: <br>Videofilm: <br>Street View: ", "beskrivelse": "beskrivelse: \ntype: \nVideofilm: \nStreet View:", "type": "", "Videofilm": "", "Street_View": "", "gx_media_links": null }, "geometry": { "type": "Point", "coordinates": [ 9.587519, 55.419841 ] } },
{ "type": "Feature", "properties": { "Name": "Grønninghoved Strand Camping", "description": "beskrivelse: beskrivelse: <br>type: <br>Videofilm: <br>Street View:<br>type: <br>Videofilm: <br>Street View: ", "beskrivelse": "beskrivelse: \ntype: \nVideofilm: \nStreet View:", "type": "", "Videofilm": "", "Street_View": "", "gx_media_links": null }, "geometry": { "type": "Point", "coordinates": [ 9.591745, 55.411295 ] } },
{ "type": "Feature", "properties": { "Name": "Copenhagen Camping A\/S", "description": "beskrivelse: beskrivelse: <br>type: <br>Videofilm: <br>Street View:<br>type: <br>Videofilm: <br>Street View: ", "beskrivelse": "beskrivelse: \ntype: \nVideofilm: \nStreet View:", "type": "", "Videofilm": "", "Street_View": "", "gx_media_links": null }, "geometry": { "type": "Point", "coordinates": [ 12.628741, 55.582432 ] } },
{ "type": "Feature", "properties": { "Name": "Copenhagen Motorhome Camp", "description": "beskrivelse: beskrivelse: <br>type: <br>Videofilm: <br>Street View:<br>type: <br>Videofilm: <br>Street View: ", "beskrivelse": "beskrivelse: \ntype: \nVideofilm: \nStreet View:", "type": "", "Videofilm": "", "Street_View": "", "gx_media_links": null }, "geometry": { "type": "Point", "coordinates": [ 12.342473, 55.59399 ] } },
{ "type": "Feature", "properties": { "Name": "Tangloppen Camping", "description": "beskrivelse: beskrivelse: <br>type: <br>Videofilm: <br>Street View:<br>type: <br>Videofilm: <br>Street View: ", "beskrivelse": "beskrivelse: \ntype: \nVideofilm: \nStreet View:", "type": "", "Videofilm": "", "Street_View": "", "gx_media_links": null }, "geometry": { "type": "Point", "coordinates": [ 12.380248, 55.607808 ] } },
{ "type": "Feature", "properties": { "Name": "Ishøj Strand Camping", "description": "beskrivelse: beskrivelse: <br>type: <br>Videofilm: <br>Street View:<br>type: <br>Videofilm: <br>Street View: ", "beskrivelse": "beskrivelse: \ntype: \nVideofilm: \nStreet View:", "type": "", "Videofilm": "", "Street_View": "", "gx_media_links": null }, "geometry": { "type": "Point", "coordinates": [ 12.369835, 55.613091 ] } },
{ "type": "Feature", "properties": { "Name": "DCU-Copenhagen Camp", "description": "beskrivelse: beskrivelse: <br>type: <br>Videofilm: <br>Street View:<br>type: <br>Videofilm: <br>Street View: ", "beskrivelse": "beskrivelse: \ntype: \nVideofilm: \nStreet View:", "type": "", "Videofilm": "", "Street_View": "", "gx_media_links": null }, "geometry": { "type": "Point", "coordinates": [ 12.43339, 55.67119 ] } },
{ "type": "Feature", "properties": { "Name": "Bellahøj Camping", "description": "beskrivelse: beskrivelse: <br>type: 160v<br>Videofilm: Video kommer<br>Street View:<br>type: 160v<br>Videofilm: Video kommer<br>Street View: ", "beskrivelse": "beskrivelse: \ntype: 160v\nVideofilm: Video kommer\nStreet View:", "type": "160v", "Videofilm": "Video kommer", "Street_View": "", "gx_media_links": null }, "geometry": { "type": "Point", "coordinates": [ 12.511652, 55.700872 ] } },
{ "type": "Feature", "properties": { "Name": "CPH Autocamp", "description": "beskrivelse: beskrivelse: <br>type: <br>Videofilm: <br>Street View:<br>type: <br>Videofilm: <br>Street View: ", "beskrivelse": "beskrivelse: \ntype: \nVideofilm: \nStreet View:", "type": "", "Videofilm": "", "Street_View": "", "gx_media_links": null }, "geometry": { "type": "Point", "coordinates": [ 12.574081, 55.638503 ] } },
{ "type": "Feature", "properties": { "Name": "Charlottenlund Fort Camping", "description": "beskrivelse: beskrivelse: <br>type: <br>Videofilm: <br>Street View:<br>type: <br>Videofilm: <br>Street View: ", "beskrivelse": "beskrivelse: \ntype: \nVideofilm: \nStreet View:", "type": "", "Videofilm": "", "Street_View": "", "gx_media_links": null }, "geometry": { "type": "Point", "coordinates": [ 12.584964, 55.74455 ] } },
{ "type": "Feature", "properties": { "Name": "DCU-Camping Nærum", "description": "beskrivelse: beskrivelse: <br>type: <br>Videofilm: <br>Street View:<br>type: <br>Videofilm: <br>Street View: ", "beskrivelse": "beskrivelse: \ntype: \nVideofilm: \nStreet View:", "type": "", "Videofilm": "", "Street_View": "", "gx_media_links": null }, "geometry": { "type": "Point", "coordinates": [ 12.530415, 55.808012 ] } },
{ "type": "Feature", "properties": { "Name": "Hillerød Camping", "description": "beskrivelse: beskrivelse: <br>type: <br>Videofilm: <br>Street View:<br>type: <br>Videofilm: <br>Street View: ", "beskrivelse": "beskrivelse: \ntype: \nVideofilm: \nStreet View:", "type": "", "Videofilm": "", "Street_View": "", "gx_media_links": null }, "geometry": { "type": "Point", "coordinates": [ 12.295711, 55.923723 ] } },
{ "type": "Feature", "properties": { "Name": "Bendstrup Camping", "description": "beskrivelse: beskrivelse: <br>type: <br>Videofilm: <br>Street View:<br>type: <br>Videofilm: <br>Street View: ", "beskrivelse": "beskrivelse: \ntype: \nVideofilm: \nStreet View:", "type": "", "Videofilm": "", "Street_View": "", "gx_media_links": null }, "geometry": { "type": "Point", "coordinates": [ 12.253072, 55.966599 ] } },
{ "type": "Feature", "properties": { "Name": "Helsingør Camping", "description": "beskrivelse: beskrivelse: <br>type: <br>Videofilm: <br>Street View:<br>type: <br>Videofilm: <br>Street View: ", "beskrivelse": "beskrivelse: \ntype: \nVideofilm: \nStreet View:", "type": "", "Videofilm": "", "Street_View": "", "gx_media_links": null }, "geometry": { "type": "Point", "coordinates": [ 12.604981, 56.043274 ] } },
{ "type": "Feature", "properties": { "Name": "Nivå Camping", "description": "beskrivelse: beskrivelse: <br>type: <br>Videofilm: <br>Street View:<br>type: <br>Videofilm: <br>Street View: ", "beskrivelse": "beskrivelse: \ntype: \nVideofilm: \nStreet View:", "type": "", "Videofilm": "", "Street_View": "", "gx_media_links": null }, "geometry": { "type": "Point", "coordinates": [ 12.516347, 55.940245 ] } },
{ "type": "Feature", "properties": { "Name": "Byaasgaard Camping", "description": "beskrivelse: beskrivelse: <br>type: <br>Videofilm: <br>Street View:<br>type: <br>Videofilm: <br>Street View: ", "beskrivelse": "beskrivelse: \ntype: \nVideofilm: \nStreet View:", "type": "", "Videofilm": "", "Street_View": "", "gx_media_links": null }, "geometry": { "type": "Point", "coordinates": [ 11.956408, 55.96368 ] } },
{ "type": "Feature", "properties": { "Name": "DCU-Camping Rågeleje", "description": "beskrivelse: beskrivelse: <br>type: <br>Videofilm: <br>Street View:<br>type: <br>Videofilm: <br>Street View: ", "beskrivelse": "beskrivelse: \ntype: \nVideofilm: \nStreet View:", "type": "", "Videofilm": "", "Street_View": "", "gx_media_links": null }, "geometry": { "type": "Point", "coordinates": [ 12.149916, 56.090239 ] } },
{ "type": "Feature", "properties": { "Name": "Gilleleje Camping & Feriecenter", "description": "beskrivelse: beskrivelse: <br>type: <br>Videofilm: <br>Street View:<br>type: <br>Videofilm: <br>Street View: ", "beskrivelse": "beskrivelse: \ntype: \nVideofilm: \nStreet View:", "type": "", "Videofilm": "", "Street_View": "", "gx_media_links": null }, "geometry": { "type": "Point", "coordinates": [ 12.341214, 56.105544 ] } },
{ "type": "Feature", "properties": { "Name": "Dronningmølle Strandcamping", "description": "beskrivelse: beskrivelse: <br>type: <br>Videofilm: <br>Street View:<br>type: <br>Videofilm: <br>Street View: ", "beskrivelse": "beskrivelse: \ntype: \nVideofilm: \nStreet View:", "type": "", "Videofilm": "", "Street_View": "", "gx_media_links": null }, "geometry": { "type": "Point", "coordinates": [ 12.394628, 56.097999 ] } },
{ "type": "Feature", "properties": { "Name": "DCU-Camping Hornbæk", "description": "beskrivelse: beskrivelse: <br>type: <br>Videofilm: <br>Street View:<br>type: <br>Videofilm: <br>Street View: ", "beskrivelse": "beskrivelse: \ntype: \nVideofilm: \nStreet View:", "type": "", "Videofilm": "", "Street_View": "", "gx_media_links": null }, "geometry": { "type": "Point", "coordinates": [ 12.472408, 56.083697 ] } },
{ "type": "Feature", "properties": { "Name": "Camping Roskilde", "description": "beskrivelse: beskrivelse: <br>type: <br>Videofilm: <br>Street View:<br>type: <br>Videofilm: <br>Street View: ", "beskrivelse": "beskrivelse: \ntype: \nVideofilm: \nStreet View:", "type": "", "Videofilm": "", "Street_View": "", "gx_media_links": null }, "geometry": { "type": "Point", "coordinates": [ 12.073532, 55.675309 ] } },
{ "type": "Feature", "properties": { "Name": "Holbæk Fjord Camping", "description": "beskrivelse: beskrivelse: <br>type: <br>Videofilm: <br>Street View:<br>type: <br>Videofilm: <br>Street View: ", "beskrivelse": "beskrivelse: \ntype: \nVideofilm: \nStreet View:", "type": "", "Videofilm": "", "Street_View": "", "gx_media_links": null }, "geometry": { "type": "Point", "coordinates": [ 11.761359, 55.716941 ] } },
{ "type": "Feature", "properties": { "Name": "Kalundborg Camping", "description": "beskrivelse: beskrivelse: <br>type: <br>Videofilm: <br>Street View:<br>type: <br>Videofilm: <br>Street View: ", "beskrivelse": "beskrivelse: \ntype: \nVideofilm: \nStreet View:", "type": "", "Videofilm": "", "Street_View": "", "gx_media_links": null }, "geometry": { "type": "Point", "coordinates": [ 11.114078, 55.728901 ] } },
{ "type": "Feature", "properties": { "Name": "Kongshøj Strand Camping", "description": "beskrivelse: beskrivelse: https:\/\/kongshojcamping.dk\/<br>type: -120<br>Videofilm: <br>Street View:<br>type: -120<br>Videofilm: <br>Street View: ", "beskrivelse": "beskrivelse: https:\/\/kongshojcamping.dk\/\ntype: -120\nVideofilm: \nStreet View:", "type": "-120", "Videofilm": "", "Street_View": "", "gx_media_links": null }, "geometry": { "type": "Point", "coordinates": [ 10.806815, 55.221078 ] } },
{ "type": "Feature", "properties": { "Name": "Tårup Strand Camping", "description": "beskrivelse: beskrivelse: <br>type: <br>Videofilm: <br>Street View:<br>type: <br>Videofilm: <br>Street View: ", "beskrivelse": "beskrivelse: \ntype: \nVideofilm: \nStreet View:", "type": "", "Videofilm": "", "Street_View": "", "gx_media_links": null }, "geometry": { "type": "Point", "coordinates": [ 10.808462, 55.237581 ] } },
{ "type": "Feature", "properties": { "Name": "Grønnehave Strand Camping * * *", "description": "beskrivelse: beskrivelse: <br>type: <br>Videofilm: <br>Street View:<br>type: <br>Videofilm: <br>Street View: ", "beskrivelse": "beskrivelse: \ntype: \nVideofilm: \nStreet View:", "type": "", "Videofilm": "", "Street_View": "", "gx_media_links": null }, "geometry": { "type": "Point", "coordinates": [ 10.786502, 55.35873 ] } },
{ "type": "Feature", "properties": { "Name": "Skovly Camping", "description": "beskrivelse: beskrivelse: <br>type: <br>Videofilm: <br>Street View:<br>type: <br>Videofilm: <br>Street View: ", "beskrivelse": "beskrivelse: \ntype: \nVideofilm: \nStreet View:", "type": "", "Videofilm": "", "Street_View": "", "gx_media_links": null }, "geometry": { "type": "Point", "coordinates": [ 11.857468, 55.496119 ] } },
{ "type": "Feature", "properties": { "Name": "Sælvigbugtens Camping v\/Birte Snedker", "description": "beskrivelse: beskrivelse: <br>type: <br>Videofilm: <br>Street View:<br>type: <br>Videofilm: <br>Street View: ", "beskrivelse": "beskrivelse: \ntype: \nVideofilm: \nStreet View:", "type": "", "Videofilm": "", "Street_View": "", "gx_media_links": null }, "geometry": { "type": "Point", "coordinates": [ 10.596681, 55.892726 ] } },
{ "type": "Feature", "properties": { "Name": "Klitgård Camping - Samsø", "description": "beskrivelse: beskrivelse: <br>type: <br>Videofilm: <br>Street View:<br>type: <br>Videofilm: <br>Street View: ", "beskrivelse": "beskrivelse: \ntype: \nVideofilm: \nStreet View:", "type": "", "Videofilm": "", "Street_View": "", "gx_media_links": null }, "geometry": { "type": "Point", "coordinates": [ 10.562208, 55.974174 ] } },
{ "type": "Feature", "properties": { "Name": "Vesterlyng Camping", "description": "beskrivelse: beskrivelse: <br>type: <br>Videofilm: <br>Street View:<br>type: <br>Videofilm: <br>Street View: ", "beskrivelse": "beskrivelse: \ntype: \nVideofilm: \nStreet View:", "type": "", "Videofilm": "", "Street_View": "", "gx_media_links": null }, "geometry": { "type": "Point", "coordinates": [ 11.308816, 55.743305 ] } },
{ "type": "Feature", "properties": { "Name": "DCU-Camping Rørvig Strand", "description": "beskrivelse: beskrivelse: <br>type: <br>Videofilm: <br>Street View:<br>type: <br>Videofilm: <br>Street View: ", "beskrivelse": "beskrivelse: \ntype: \nVideofilm: \nStreet View:", "type": "", "Videofilm": "", "Street_View": "", "gx_media_links": null }, "geometry": { "type": "Point", "coordinates": [ 11.683567, 55.941519 ] } },
{ "type": "Feature", "properties": { "Name": "Campinggården Boeslunde", "description": "beskrivelse: beskrivelse: <br>type: <br>Videofilm: <br>Street View:<br>type: <br>Videofilm: <br>Street View: ", "beskrivelse": "beskrivelse: \ntype: \nVideofilm: \nStreet View:", "type": "", "Videofilm": "", "Street_View": "", "gx_media_links": null }, "geometry": { "type": "Point", "coordinates": [ 11.265393, 55.289438 ] } },
{ "type": "Feature", "properties": { "Name": "Skælskør Nor Camping ApS", "description": "beskrivelse: beskrivelse: <br>type: <br>Videofilm: <br>Street View:<br>type: <br>Videofilm: <br>Street View: ", "beskrivelse": "beskrivelse: \ntype: \nVideofilm: \nStreet View:", "type": "", "Videofilm": "", "Street_View": "", "gx_media_links": null }, "geometry": { "type": "Point", "coordinates": [ 11.283994, 55.258296 ] } },
{ "type": "Feature", "properties": { "Name": "Christiansen Knud", "description": "beskrivelse: beskrivelse: http:\/\/www.agersoe-camping.dk\/<br>type: -120<br>Videofilm: <br>Street View:<br>type: -120<br>Videofilm: <br>Street View: ", "beskrivelse": "beskrivelse: http:\/\/www.agersoe-camping.dk\/\ntype: -120\nVideofilm: \nStreet View:", "type": "-120", "Videofilm": "", "Street_View": "", "gx_media_links": null }, "geometry": { "type": "Point", "coordinates": [ 11.18995, 55.212382 ] } },
{ "type": "Feature", "properties": { "Name": "Bisserup Camping Sjælland", "description": "beskrivelse: beskrivelse: <br>type: <br>Videofilm: <br>Street View:<br>type: <br>Videofilm: <br>Street View: ", "beskrivelse": "beskrivelse: \ntype: \nVideofilm: \nStreet View:", "type": "", "Videofilm": "", "Street_View": "", "gx_media_links": null }, "geometry": { "type": "Point", "coordinates": [ 11.496755, 55.200697 ] } },
{ "type": "Feature", "properties": { "Name": "De Hvide Svaner Camping", "description": "beskrivelse: beskrivelse: <br>type: <br>Videofilm: <br>Street View:<br>type: <br>Videofilm: <br>Street View: ", "beskrivelse": "beskrivelse: \ntype: \nVideofilm: \nStreet View:", "type": "", "Videofilm": "", "Street_View": "", "gx_media_links": null }, "geometry": { "type": "Point", "coordinates": [ 11.665307, 55.20164 ] } },
{ "type": "Feature", "properties": { "Name": "E 4 Heinos Camping", "description": "beskrivelse: beskrivelse: http:\/\/www.heinoscamping.dk\/<br>type: -120<br>Videofilm: <br>Street View:<br>type: -120<br>Videofilm: <br>Street View: ", "beskrivelse": "beskrivelse: http:\/\/www.heinoscamping.dk\/\ntype: -120\nVideofilm: \nStreet View:", "type": "-120", "Videofilm": "", "Street_View": "", "gx_media_links": null }, "geometry": { "type": "Point", "coordinates": [ 11.98215, 55.165804 ] } },
{ "type": "Feature", "properties": { "Name": "Feddet Strand Resort", "description": "beskrivelse: beskrivelse: <br>type: <br>Videofilm: <br>Street View:<br>type: <br>Videofilm: <br>Street View: ", "beskrivelse": "beskrivelse: \ntype: \nVideofilm: \nStreet View:", "type": "", "Videofilm": "", "Street_View": "", "gx_media_links": null }, "geometry": { "type": "Point", "coordinates": [ 12.101267, 55.173966 ] } },
{ "type": "Feature", "properties": { "Name": "Præstø Camping", "description": "beskrivelse: beskrivelse: <br>type: <br>Videofilm: <br>Street View:<br>type: <br>Videofilm: <br>Street View: ", "beskrivelse": "beskrivelse: \ntype: \nVideofilm: \nStreet View:", "type": "", "Videofilm": "", "Street_View": "", "gx_media_links": null }, "geometry": { "type": "Point", "coordinates": [ 12.039226, 55.118841 ] } },
{ "type": "Feature", "properties": { "Name": "Ore Strand Camping", "description": "beskrivelse: beskrivelse: <br>type: - 160<br>Videofilm: <br>Street View:<br>type: - 160<br>Videofilm: <br>Street View: ", "beskrivelse": "beskrivelse: \ntype: - 160\nVideofilm: \nStreet View:", "type": "- 160", "Videofilm": "", "Street_View": "", "gx_media_links": null }, "geometry": { "type": "Point", "coordinates": [ 11.874839, 55.00664 ] } },
{ "type": "Feature", "properties": { "Name": "Morsø Camping", "description": "beskrivelse: beskrivelse: <br>type: <br>Videofilm: <br>Street View:<br>type: <br>Videofilm: <br>Street View: ", "beskrivelse": "beskrivelse: \ntype: \nVideofilm: \nStreet View:", "type": "", "Videofilm": "", "Street_View": "", "gx_media_links": null }, "geometry": { "type": "Point", "coordinates": [ 8.873044, 56.797751 ] } },
{ "type": "Feature", "properties": { "Name": "Glyngøre Camping", "description": "beskrivelse: beskrivelse: <br>type: <br>Videofilm: <br>Street View:<br>type: <br>Videofilm: <br>Street View: ", "beskrivelse": "beskrivelse: \ntype: \nVideofilm: \nStreet View:", "type": "", "Videofilm": "", "Street_View": "", "gx_media_links": null }, "geometry": { "type": "Point", "coordinates": [ 8.868373, 56.74195 ] } },
{ "type": "Feature", "properties": { "Name": "Fur Camping", "description": "beskrivelse: beskrivelse: http:\/\/www.furcamping.dk\/<br>type: -120<br>Videofilm: <br>Street View:<br>type: -120<br>Videofilm: <br>Street View: ", "beskrivelse": "beskrivelse: http:\/\/www.furcamping.dk\/\ntype: -120\nVideofilm: \nStreet View:", "type": "-120", "Videofilm": "", "Street_View": "", "gx_media_links": null }, "geometry": { "type": "Point", "coordinates": [ 8.976441, 56.834061 ] } },
{ "type": "Feature", "properties": { "Name": "Gerlis Camping", "description": "beskrivelse: beskrivelse: <br>type: - 160<br>Videofilm: <br>Street View:<br>type: - 160<br>Videofilm: <br>Street View: ", "beskrivelse": "beskrivelse: \ntype: - 160\nVideofilm: \nStreet View:", "type": "- 160", "Videofilm": "", "Street_View": "", "gx_media_links": null }, "geometry": { "type": "Point", "coordinates": [ 8.870839, 56.930436 ] } },
{ "type": "Feature", "properties": { "Name": "Vilsund Campings Kiosk", "description": "beskrivelse: beskrivelse: <br>type: <br>Videofilm: <br>Street View:<br>type: <br>Videofilm: <br>Street View: ", "beskrivelse": "beskrivelse: \ntype: \nVideofilm: \nStreet View:", "type": "", "Videofilm": "", "Street_View": "", "gx_media_links": null }, "geometry": { "type": "Point", "coordinates": [ 8.624704, 56.880047 ] } },
{ "type": "Feature", "properties": { "Name": "Skive Fjord Camping", "description": "beskrivelse: beskrivelse: <br>type: <br>Videofilm: <br>Street View:<br>type: <br>Videofilm: <br>Street View: ", "beskrivelse": "beskrivelse: \ntype: \nVideofilm: \nStreet View:", "type": "", "Videofilm": "", "Street_View": "", "gx_media_links": null }, "geometry": { "type": "Point", "coordinates": [ 9.038409, 56.597942 ] } },
{ "type": "Feature", "properties": { "Name": "Trandum Camping", "description": "beskrivelse: beskrivelse: <br>type: - 160<br>Videofilm: <br>Street View:<br>type: - 160<br>Videofilm: <br>Street View: ", "beskrivelse": "beskrivelse: \ntype: - 160\nVideofilm: \nStreet View:", "type": "- 160", "Videofilm": "", "Street_View": "", "gx_media_links": null }, "geometry": { "type": "Point", "coordinates": [ 8.966983, 56.432459 ] } },
{ "type": "Feature", "properties": { "Name": "Skyttehusets Camping og Café", "description": "beskrivelse: beskrivelse: <br>type: <br>Videofilm: <br>Street View:<br>type: <br>Videofilm: <br>Street View: ", "beskrivelse": "beskrivelse: \ntype: \nVideofilm: \nStreet View:", "type": "", "Videofilm": "", "Street_View": "", "gx_media_links": null }, "geometry": { "type": "Point", "coordinates": [ 9.637606, 56.124696 ] } },
{ "type": "Feature", "properties": { "Name": "Sejs Bakker Camping i Silkeborg", "description": "beskrivelse: beskrivelse: <br>type: <br>Videofilm: <br>Street View:<br>type: <br>Videofilm: <br>Street View: ", "beskrivelse": "beskrivelse: \ntype: \nVideofilm: \nStreet View:", "type": "", "Videofilm": "", "Street_View": "", "gx_media_links": null }, "geometry": { "type": "Point", "coordinates": [ 9.620181, 56.140289 ] } },
{ "type": "Feature", "properties": { "Name": "Gudenåens Camping Silkeborg", "description": "beskrivelse: beskrivelse: http:\/\/gudenaaenscamping.dk\/<br>type: <br>Videofilm: <br>Street View:<br>type: <br>Videofilm: <br>Street View: ", "beskrivelse": "beskrivelse: http:\/\/gudenaaenscamping.dk\/\ntype: \nVideofilm: \nStreet View:", "type": "", "Videofilm": "", "Street_View": "", "gx_media_links": null }, "geometry": { "type": "Point", "coordinates": [ 9.563108, 56.15689 ] } },
{ "type": "Feature", "properties": { "Name": "Bøllingsø Camping", "description": "beskrivelse: beskrivelse: <br>type: <br>Videofilm: <br>Street View:<br>type: <br>Videofilm: <br>Street View: ", "beskrivelse": "beskrivelse: \ntype: \nVideofilm: \nStreet View:", "type": "", "Videofilm": "", "Street_View": "", "gx_media_links": null }, "geometry": { "type": "Point", "coordinates": [ 9.354603, 56.18721 ] } },
{ "type": "Feature", "properties": { "Name": "DCU-Camping Hesselhus", "description": "beskrivelse: beskrivelse: <br>type: <br>Videofilm: <br>Street View:<br>type: <br>Videofilm: <br>Street View: ", "beskrivelse": "beskrivelse: \ntype: \nVideofilm: \nStreet View:", "type": "", "Videofilm": "", "Street_View": "", "gx_media_links": null }, "geometry": { "type": "Point", "coordinates": [ 9.397031, 56.14868 ] } },
{ "type": "Feature", "properties": { "Name": "Hobro Camping Gattenborg", "description": "beskrivelse: beskrivelse: <br>type: <br>Videofilm: <br>Street View:<br>type: <br>Videofilm: <br>Street View: ", "beskrivelse": "beskrivelse: \ntype: \nVideofilm: \nStreet View:", "type": "", "Videofilm": "", "Street_View": "", "gx_media_links": null }, "geometry": { "type": "Point", "coordinates": [ 9.780867, 56.635943 ] } },
{ "type": "Feature", "properties": { "Name": "BRAMSLEV BAKKER CAMPING", "description": "beskrivelse: beskrivelse: <br>type: - 160<br>Videofilm: <br>Street View:<br>type: - 160<br>Videofilm: <br>Street View: ", "beskrivelse": "beskrivelse: \ntype: - 160\nVideofilm: \nStreet View:", "type": "- 160", "Videofilm": "", "Street_View": "", "gx_media_links": null }, "geometry": { "type": "Point", "coordinates": [ 9.868771, 56.651652 ] } },
{ "type": "Feature", "properties": { "Name": "Mariager Camping", "description": "beskrivelse: beskrivelse: <br>type: <br>Videofilm: <br>Street View:<br>type: <br>Videofilm: <br>Street View: ", "beskrivelse": "beskrivelse: \ntype: \nVideofilm: \nStreet View:", "type": "", "Videofilm": "", "Street_View": "", "gx_media_links": null }, "geometry": { "type": "Point", "coordinates": [ 9.975388, 56.65427 ] } },
{ "type": "Feature", "properties": { "Name": "Hadsund camping og vandrerhjem", "description": "beskrivelse: beskrivelse: <br>type: <br>Videofilm: <br>Street View:<br>type: <br>Videofilm: <br>Street View: ", "beskrivelse": "beskrivelse: \ntype: \nVideofilm: \nStreet View:", "type": "", "Videofilm": "", "Street_View": "", "gx_media_links": null }, "geometry": { "type": "Point", "coordinates": [ 10.133517, 56.721492 ] } },
{ "type": "Feature", "properties": { "Name": "Kattegat Strand Camping", "description": "beskrivelse: beskrivelse: <br>type: <br>Videofilm: <br>Street View:<br>type: <br>Videofilm: <br>Street View: ", "beskrivelse": "beskrivelse: \ntype: \nVideofilm: \nStreet View:", "type": "", "Videofilm": "", "Street_View": "", "gx_media_links": null }, "geometry": { "type": "Point", "coordinates": [ 10.269639, 56.825183 ] } },
{ "type": "Feature", "properties": { "Name": "Øster Hurup Camping", "description": "beskrivelse: beskrivelse: <br>type: <br>Videofilm: <br>Street View:<br>type: <br>Videofilm: <br>Street View: ", "beskrivelse": "beskrivelse: \ntype: \nVideofilm: \nStreet View:", "type": "", "Videofilm": "", "Street_View": "", "gx_media_links": null }, "geometry": { "type": "Point", "coordinates": [ 10.273316, 56.79985 ] } },
{ "type": "Feature", "properties": { "Name": "Als Havbakker", "description": "beskrivelse: beskrivelse: http:\/\/www.alscamping.net\/<br>type: -120<br>Videofilm: <br>Street View:<br>type: -120<br>Videofilm: <br>Street View: ", "beskrivelse": "beskrivelse: http:\/\/www.alscamping.net\/\ntype: -120\nVideofilm: \nStreet View:", "type": "-120", "Videofilm": "", "Street_View": "", "gx_media_links": null }, "geometry": { "type": "Point", "coordinates": [ 10.294475, 56.753318 ] } },
{ "type": "Feature", "properties": { "Name": "Als Camping", "description": "beskrivelse: beskrivelse: http:\/\/www.alscamping.net\/<br>type: -120<br>Videofilm: <br>Street View:<br>type: -120<br>Videofilm: <br>Street View: ", "beskrivelse": "beskrivelse: http:\/\/www.alscamping.net\/\ntype: -120\nVideofilm: \nStreet View:", "type": "-120", "Videofilm": "", "Street_View": "", "gx_media_links": null }, "geometry": { "type": "Point", "coordinates": [ 10.296865, 56.749426 ] } },
{ "type": "Feature", "properties": { "Name": "DCU-Camping Mejdal", "description": "beskrivelse: beskrivelse: <br>type: <br>Videofilm: <br>Street View:<br>type: <br>Videofilm: <br>Street View: ", "beskrivelse": "beskrivelse: \ntype: \nVideofilm: \nStreet View:", "type": "", "Videofilm": "", "Street_View": "", "gx_media_links": null }, "geometry": { "type": "Point", "coordinates": [ 8.644307, 56.34961 ] } },
{ "type": "Feature", "properties": { "Name": "DCU-Camping Ejsing Strand", "description": "beskrivelse: beskrivelse: <br>type: <br>Videofilm: <br>Street View:<br>type: <br>Videofilm: <br>Street View: ", "beskrivelse": "beskrivelse: \ntype: \nVideofilm: \nStreet View:", "type": "", "Videofilm": "", "Street_View": "", "gx_media_links": null }, "geometry": { "type": "Point", "coordinates": [ 8.747247, 56.518825 ] } },
{ "type": "Feature", "properties": { "Name": "Toftum Bjerge Camping", "description": "beskrivelse: beskrivelse: <br>type: <br>Videofilm: <br>Street View:<br>type: <br>Videofilm: <br>Street View: ", "beskrivelse": "beskrivelse: \ntype: \nVideofilm: \nStreet View:", "type": "", "Videofilm": "", "Street_View": "", "gx_media_links": null }, "geometry": { "type": "Point", "coordinates": [ 8.530746, 56.541121 ] } },
{ "type": "Feature", "properties": { "Name": "Sevel Camping", "description": "beskrivelse: beskrivelse: <br>type: <br>Videofilm: <br>Street View:<br>type: <br>Videofilm: <br>Street View: ", "beskrivelse": "beskrivelse: \ntype: \nVideofilm: \nStreet View:", "type": "", "Videofilm": "", "Street_View": "", "gx_media_links": null }, "geometry": { "type": "Point", "coordinates": [ 8.869157, 56.45931 ] } },
{ "type": "Feature", "properties": { "Name": "Aarø Camping v\/Jan Sejersen", "description": "beskrivelse: beskrivelse: <br>type: <br>Videofilm: <br>Street View:<br>type: <br>Videofilm: <br>Street View: ", "beskrivelse": "beskrivelse: \ntype: \nVideofilm: \nStreet View:", "type": "", "Videofilm": "", "Street_View": "", "gx_media_links": null }, "geometry": { "type": "Point", "coordinates": [ 9.752602, 55.259572 ] } },
{ "type": "Feature", "properties": { "Name": "Gammelbro Camping", "description": "beskrivelse: beskrivelse: <br>type: <br>Videofilm: <br>Street View:<br>type: <br>Videofilm: <br>Street View: ", "beskrivelse": "beskrivelse: \ntype: \nVideofilm: \nStreet View:", "type": "", "Videofilm": "", "Street_View": "", "gx_media_links": null }, "geometry": { "type": "Point", "coordinates": [ 9.713903, 55.248445 ] } },
{ "type": "Feature", "properties": { "Name": "Halk Strand Camping", "description": "beskrivelse: beskrivelse: <br>type: <br>Videofilm: <br>Street View:<br>type: <br>Videofilm: <br>Street View: ", "beskrivelse": "beskrivelse: \ntype: \nVideofilm: \nStreet View:", "type": "", "Videofilm": "", "Street_View": "", "gx_media_links": null }, "geometry": { "type": "Point", "coordinates": [ 9.6551, 55.186503 ] } },
{ "type": "Feature", "properties": { "Name": "Sandersvig Camping ApS", "description": "beskrivelse: beskrivelse: <br>type: <br>Videofilm: <br>Street View:<br>type: <br>Videofilm: <br>Street View: ", "beskrivelse": "beskrivelse: \ntype: \nVideofilm: \nStreet View:", "type": "", "Videofilm": "", "Street_View": "", "gx_media_links": null }, "geometry": { "type": "Point", "coordinates": [ 9.631619, 55.334283 ] } },
{ "type": "Feature", "properties": { "Name": "Sønderballe Strand Camping", "description": "beskrivelse: beskrivelse: <br>type: <br>Videofilm: <br>Street View:<br>type: <br>Videofilm: <br>Street View: ", "beskrivelse": "beskrivelse: \ntype: \nVideofilm: \nStreet View:", "type": "", "Videofilm": "", "Street_View": "", "gx_media_links": null }, "geometry": { "type": "Point", "coordinates": [ 9.47642, 55.13252 ] } },
{ "type": "Feature", "properties": { "Name": "Vikær Strand Camping", "description": "beskrivelse: beskrivelse: <br>type: <br>Videofilm: <br>Street View:<br>type: <br>Videofilm: <br>Street View: ", "beskrivelse": "beskrivelse: \ntype: \nVideofilm: \nStreet View:", "type": "", "Videofilm": "", "Street_View": "", "gx_media_links": null }, "geometry": { "type": "Point", "coordinates": [ 9.494226, 55.150018 ] } },
{ "type": "Feature", "properties": { "Name": "Skarrev Camping", "description": "beskrivelse: beskrivelse: <br>type: <br>Videofilm: <br>Street View:<br>type: <br>Videofilm: <br>Street View: ", "beskrivelse": "beskrivelse: \ntype: \nVideofilm: \nStreet View:", "type": "", "Videofilm": "", "Street_View": "", "gx_media_links": null }, "geometry": { "type": "Point", "coordinates": [ 9.500105, 55.046747 ] } },
{ "type": "Feature", "properties": { "Name": "Genner Hoel Pandekagehus og Camping", "description": "beskrivelse: beskrivelse: <br>type: - 160<br>Videofilm: <br>Street View:<br>type: - 160<br>Videofilm: <br>Street View: ", "beskrivelse": "beskrivelse: \ntype: - 160\nVideofilm: \nStreet View:", "type": "- 160", "Videofilm": "", "Street_View": "", "gx_media_links": null }, "geometry": { "type": "Point", "coordinates": [ 9.439213, 55.110168 ] } },
{ "type": "Feature", "properties": { "Name": "Sandskaer Strandcamping", "description": "beskrivelse: beskrivelse: <br>type: <br>Videofilm: <br>Street View:<br>type: <br>Videofilm: <br>Street View: ", "beskrivelse": "beskrivelse: \ntype: \nVideofilm: \nStreet View:", "type": "", "Videofilm": "", "Street_View": "", "gx_media_links": null }, "geometry": { "type": "Point", "coordinates": [ 9.49685, 55.116893 ] } },
{ "type": "Feature", "properties": { "Name": "Loddenhøj Camping", "description": "beskrivelse: beskrivelse: <br>type: <br>Videofilm: <br>Street View:<br>type: <br>Videofilm: <br>Street View: ", "beskrivelse": "beskrivelse: \ntype: \nVideofilm: \nStreet View:", "type": "", "Videofilm": "", "Street_View": "", "gx_media_links": null }, "geometry": { "type": "Point", "coordinates": [ 9.52507, 55.10483 ] } },
{ "type": "Feature", "properties": { "Name": "Gammelmark Strand Camping", "description": "beskrivelse: beskrivelse: <br>type: - 160<br>Videofilm: <br>Street View:<br>type: - 160<br>Videofilm: <br>Street View: ", "beskrivelse": "beskrivelse: \ntype: - 160\nVideofilm: \nStreet View:", "type": "- 160", "Videofilm": "", "Street_View": "", "gx_media_links": null }, "geometry": { "type": "Point", "coordinates": [ 9.728946, 54.885306 ] } },
{ "type": "Feature", "properties": { "Name": "Broager Strand Camping", "description": "beskrivelse: beskrivelse: <br>type: <br>Videofilm: <br>Street View:<br>type: <br>Videofilm: <br>Street View: ", "beskrivelse": "beskrivelse: \ntype: \nVideofilm: \nStreet View:", "type": "", "Videofilm": "", "Street_View": "", "gx_media_links": null }, "geometry": { "type": "Point", "coordinates": [ 9.744103, 54.867584 ] } },
{ "type": "Feature", "properties": { "Name": "Møgeltønder Camping", "description": "beskrivelse: beskrivelse: <br>type: <br>Videofilm: <br>Street View:<br>type: <br>Videofilm: <br>Street View: ", "beskrivelse": "beskrivelse: \ntype: \nVideofilm: \nStreet View:", "type": "", "Videofilm": "", "Street_View": "", "gx_media_links": null }, "geometry": { "type": "Point", "coordinates": [ 8.798633, 54.93715 ] } },
{ "type": "Feature", "properties": { "Name": "Mandø Brugs & Camping", "description": "beskrivelse: beskrivelse: <br>type: <br>Videofilm: <br>Street View:<br>type: <br>Videofilm: <br>Street View: ", "beskrivelse": "beskrivelse: \ntype: \nVideofilm: \nStreet View:", "type": "", "Videofilm": "", "Street_View": "", "gx_media_links": null }, "geometry": { "type": "Point", "coordinates": [ 8.53945, 55.274489 ] } },
{ "type": "Feature", "properties": { "Name": "Ribe Camping", "description": "beskrivelse: beskrivelse: http:\/\/www.ribecamping.dk\/<br>type: -120<br>Videofilm: <br>Street View:<br>type: -120<br>Videofilm: <br>Street View: ", "beskrivelse": "beskrivelse: http:\/\/www.ribecamping.dk\/\ntype: -120\nVideofilm: \nStreet View:", "type": "-120", "Videofilm": "", "Street_View": "", "gx_media_links": null }, "geometry": { "type": "Point", "coordinates": [ 8.766595, 55.341017 ] } },
{ "type": "Feature", "properties": { "Name": "Esbjerg Camping", "description": "beskrivelse: beskrivelse: <br>type: <br>Videofilm: <br>Street View:<br>type: <br>Videofilm: <br>Street View: ", "beskrivelse": "beskrivelse: \ntype: \nVideofilm: \nStreet View:", "type": "", "Videofilm": "", "Street_View": "", "gx_media_links": null }, "geometry": { "type": "Point", "coordinates": [ 8.388693, 55.512785 ] } },
{ "type": "Feature", "properties": { "Name": "Løgstør Camping", "description": "beskrivelse: beskrivelse: <br>type: - 160<br>Videofilm: <br>Street View:<br>type: - 160<br>Videofilm: <br>Street View: ", "beskrivelse": "beskrivelse: \ntype: - 160\nVideofilm: \nStreet View:", "type": "- 160", "Videofilm": "", "Street_View": "", "gx_media_links": null }, "geometry": { "type": "Point", "coordinates": [ 9.247133, 56.962699 ] } },
{ "type": "Feature", "properties": { "Name": "Lemvig Strand Camping", "description": "beskrivelse: beskrivelse: www.lemvigcamping.dk<br>type: -120<br>Videofilm: <br>Street View:<br>type: -120<br>Videofilm: <br>Street View: ", "beskrivelse": "beskrivelse: www.lemvigcamping.dk\ntype: -120\nVideofilm: \nStreet View:", "type": "-120", "Videofilm": "", "Street_View": "", "gx_media_links": null }, "geometry": { "type": "Point", "coordinates": [ 8.294226, 56.567523 ] } },
{ "type": "Feature", "properties": { "Name": "Nibe Camping - Sølyst ved Aalborg", "description": "beskrivelse: beskrivelse: <br>type: <br>Videofilm: <br>Street View:<br>type: <br>Videofilm: <br>Street View: ", "beskrivelse": "beskrivelse: \ntype: \nVideofilm: \nStreet View:", "type": "", "Videofilm": "", "Street_View": "", "gx_media_links": null }, "geometry": { "type": "Point", "coordinates": [ 9.624848, 56.97272 ] } },
{ "type": "Feature", "properties": { "Name": "Aalborg Familie Camping - Strandparken", "description": "beskrivelse: beskrivelse: <br>type: <br>Videofilm: <br>Street View:<br>type: <br>Videofilm: <br>Street View: ", "beskrivelse": "beskrivelse: \ntype: \nVideofilm: \nStreet View:", "type": "", "Videofilm": "", "Street_View": "", "gx_media_links": null }, "geometry": { "type": "Point", "coordinates": [ 9.885623, 57.055343 ] } },
{ "type": "Feature", "properties": { "Name": "DCU-Camping Ålbæk Strand", "description": "beskrivelse: beskrivelse: <br>type: <br>Videofilm: <br>Street View:<br>type: <br>Videofilm: <br>Street View: ", "beskrivelse": "beskrivelse: \ntype: \nVideofilm: \nStreet View:", "type": "", "Videofilm": "", "Street_View": "", "gx_media_links": null }, "geometry": { "type": "Point", "coordinates": [ 10.413771, 57.58669 ] } },
{ "type": "Feature", "properties": { "Name": "Skagen Camping", "description": "beskrivelse: beskrivelse: <br>type: <br>Videofilm: <br>Street View:<br>type: <br>Videofilm: <br>Street View: ", "beskrivelse": "beskrivelse: \ntype: \nVideofilm: \nStreet View:", "type": "", "Videofilm": "", "Street_View": "", "gx_media_links": null }, "geometry": { "type": "Point", "coordinates": [ 10.539882, 57.720539 ] } },
{ "type": "Feature", "properties": { "Name": "Poul Eeg Camping", "description": "beskrivelse: beskrivelse: <br>type: <br>Videofilm: <br>Street View:<br>type: <br>Videofilm: <br>Street View: ", "beskrivelse": "beskrivelse: \ntype: \nVideofilm: \nStreet View:", "type": "", "Videofilm": "", "Street_View": "", "gx_media_links": null }, "geometry": { "type": "Point", "coordinates": [ 10.604091, 57.73449 ] } },
{ "type": "Feature", "properties": { "Name": "Guldager Camping", "description": "beskrivelse: beskrivelse: <br>type: <br>Videofilm: <br>Street View:<br>type: <br>Videofilm: <br>Street View: ", "beskrivelse": "beskrivelse: \ntype: \nVideofilm: \nStreet View:", "type": "", "Videofilm": "", "Street_View": "", "gx_media_links": null }, "geometry": { "type": "Point", "coordinates": [ 9.652757, 57.294358 ] } },
{ "type": "Feature", "properties": { "Name": "Hals Strand Camping", "description": "beskrivelse: beskrivelse: www.halsstrandcamping.dk<br>type: -120<br>Videofilm: <br>Street View:<br>type: -120<br>Videofilm: <br>Street View: ", "beskrivelse": "beskrivelse: www.halsstrandcamping.dk\ntype: -120\nVideofilm: \nStreet View:", "type": "-120", "Videofilm": "", "Street_View": "", "gx_media_links": null }, "geometry": { "type": "Point", "coordinates": [ 10.360486, 57.040143 ] } },
{ "type": "Feature", "properties": { "Name": "Frydenstrand Camping", "description": "beskrivelse: beskrivelse: <br>type: <br>Videofilm: <br>Street View:<br>type: <br>Videofilm: <br>Street View: ", "beskrivelse": "beskrivelse: \ntype: \nVideofilm: \nStreet View:", "type": "", "Videofilm": "", "Street_View": "", "gx_media_links": null }, "geometry": { "type": "Point", "coordinates": [ 10.220422, 56.980972 ] } },
{ "type": "Feature", "properties": { "Name": "Myrhøj Camping", "description": "beskrivelse: beskrivelse: <br>type: <br>Videofilm: <br>Street View:<br>type: <br>Videofilm: <br>Street View: ", "beskrivelse": "beskrivelse: \ntype: \nVideofilm: \nStreet View:", "type": "", "Videofilm": "", "Street_View": "", "gx_media_links": null }, "geometry": { "type": "Point", "coordinates": [ 9.208926, 56.798598 ] } },
{ "type": "Feature", "properties": { "Name": "Ertebølle Strand Camping", "description": "beskrivelse: beskrivelse: <br>type: <br>Videofilm: <br>Street View:<br>type: <br>Videofilm: <br>Street View: ", "beskrivelse": "beskrivelse: \ntype: \nVideofilm: \nStreet View:", "type": "", "Videofilm": "", "Street_View": "", "gx_media_links": null }, "geometry": { "type": "Point", "coordinates": [ 9.181818, 56.812138 ] } },
{ "type": "Feature", "properties": { "Name": "Vejlby Fed Strand Camping", "description": "beskrivelse: beskrivelse: <br>type: <br>Videofilm: <br>Street View:<br>type: <br>Videofilm: <br>Street View: ", "beskrivelse": "beskrivelse: \ntype: \nVideofilm: \nStreet View:", "type": "", "Videofilm": "", "Street_View": "", "gx_media_links": null }, "geometry": { "type": "Point", "coordinates": [ 9.850223, 55.519709 ] } },
{ "type": "Feature", "properties": { "Name": "Skovlund Camping - Middelfart", "description": "beskrivelse: beskrivelse: <br>type: <br>Videofilm: <br>Street View:<br>type: <br>Videofilm: <br>Street View: ", "beskrivelse": "beskrivelse: \ntype: \nVideofilm: \nStreet View:", "type": "", "Videofilm": "", "Street_View": "", "gx_media_links": null }, "geometry": { "type": "Point", "coordinates": [ 9.899773, 55.506263 ] } },
{ "type": "Feature", "properties": { "Name": "Båringskov Camping", "description": "beskrivelse: beskrivelse: <br>type: <br>Videofilm: <br>Street View:<br>type: <br>Videofilm: <br>Street View: ", "beskrivelse": "beskrivelse: \ntype: \nVideofilm: \nStreet View:", "type": "", "Videofilm": "", "Street_View": "", "gx_media_links": null }, "geometry": { "type": "Point", "coordinates": [ 9.904207, 55.508906 ] } },
{ "type": "Feature", "properties": { "Name": "Hindsgavl Camping", "description": "beskrivelse: beskrivelse: <br>type: <br>Videofilm: <br>Street View:<br>type: <br>Videofilm: <br>Street View: ", "beskrivelse": "beskrivelse: \ntype: \nVideofilm: \nStreet View:", "type": "", "Videofilm": "", "Street_View": "", "gx_media_links": null }, "geometry": { "type": "Point", "coordinates": [ 9.698887, 55.512532 ] } },
{ "type": "Feature", "properties": { "Name": "Hjemstavnsgårdens Camping", "description": "beskrivelse: beskrivelse: <br>type: - 160<br>Videofilm: <br>Street View:<br>type: - 160<br>Videofilm: <br>Street View: ", "beskrivelse": "beskrivelse: \ntype: - 160\nVideofilm: \nStreet View:", "type": "- 160", "Videofilm": "", "Street_View": "", "gx_media_links": null }, "geometry": { "type": "Point", "coordinates": [ 10.133359, 55.258696 ] } },
{ "type": "Feature", "properties": { "Name": "Aa Strand camping", "description": "beskrivelse: beskrivelse: <br>type: <br>Videofilm: <br>Street View:<br>type: <br>Videofilm: <br>Street View: ", "beskrivelse": "beskrivelse: \ntype: \nVideofilm: \nStreet View:", "type": "", "Videofilm": "", "Street_View": "", "gx_media_links": null }, "geometry": { "type": "Point", "coordinates": [ 9.974505, 55.217121 ] } },
{ "type": "Feature", "properties": { "Name": "Løgismosestrand Camping", "description": "beskrivelse: beskrivelse: www.logismosestrand.dk<br>type: -120<br>Videofilm: <br>Street View:<br>type: -120<br>Videofilm: <br>Street View: ", "beskrivelse": "beskrivelse: www.logismosestrand.dk\ntype: -120\nVideofilm: \nStreet View:", "type": "-120", "Videofilm": "", "Street_View": "", "gx_media_links": null }, "geometry": { "type": "Point", "coordinates": [ 10.073647, 55.179372 ] } },
{ "type": "Feature", "properties": { "Name": "CampOne Assens Strand", "description": "beskrivelse: beskrivelse: <br>type: <br>Videofilm: <br>Street View:<br>type: <br>Videofilm: <br>Street View: ", "beskrivelse": "beskrivelse: \ntype: \nVideofilm: \nStreet View:", "type": "", "Videofilm": "", "Street_View": "", "gx_media_links": null }, "geometry": { "type": "Point", "coordinates": [ 9.883961, 55.265744 ] } },
{ "type": "Feature", "properties": { "Name": "Faldsled Strand Camping Laug", "description": "beskrivelse: beskrivelse: <br>type: <br>Videofilm: <br>Street View:<br>type: <br>Videofilm: <br>Street View: ", "beskrivelse": "beskrivelse: \ntype: \nVideofilm: \nStreet View:", "type": "", "Videofilm": "", "Street_View": "", "gx_media_links": null }, "geometry": { "type": "Point", "coordinates": [ 10.152933, 55.147106 ] } },
{ "type": "Feature", "properties": { "Name": "Faaborg Camping", "description": "beskrivelse: beskrivelse: <br>type: - 160<br>Videofilm: <br>Street View:<br>type: - 160<br>Videofilm: <br>Street View: ", "beskrivelse": "beskrivelse: \ntype: - 160\nVideofilm: \nStreet View:", "type": "- 160", "Videofilm": "", "Street_View": "", "gx_media_links": null }, "geometry": { "type": "Point", "coordinates": [ 10.244965, 55.116984 ] } },
{ "type": "Feature", "properties": { "Name": "CampOne Bøjden Strand", "description": "beskrivelse: beskrivelse: <br>type: <br>Videofilm: <br>Street View:<br>type: <br>Videofilm: <br>Street View: ", "beskrivelse": "beskrivelse: \ntype: \nVideofilm: \nStreet View:", "type": "", "Videofilm": "", "Street_View": "", "gx_media_links": null }, "geometry": { "type": "Point", "coordinates": [ 10.107321, 55.105256 ] } },
{ "type": "Feature", "properties": { "Name": "Sinebjerg Camping", "description": "beskrivelse: beskrivelse: <br>type: <br>Videofilm: <br>Street View:<br>type: <br>Videofilm: <br>Street View: ", "beskrivelse": "beskrivelse: \ntype: \nVideofilm: \nStreet View:", "type": "", "Videofilm": "", "Street_View": "", "gx_media_links": null }, "geometry": { "type": "Point", "coordinates": [ 10.183569, 55.080713 ] } },
{ "type": "Feature", "properties": { "Name": "Nab Strand Camping", "description": "beskrivelse: beskrivelse: <br>type: <br>Videofilm: <br>Street View:<br>type: <br>Videofilm: <br>Street View: ", "beskrivelse": "beskrivelse: \ntype: \nVideofilm: \nStreet View:", "type": "", "Videofilm": "", "Street_View": "", "gx_media_links": null }, "geometry": { "type": "Point", "coordinates": [ 10.313496, 55.064327 ] } },
{ "type": "Feature", "properties": { "Name": "Svendborg Sund Camping", "description": "beskrivelse: beskrivelse: <br>type: - 160<br>Videofilm: <br>Street View:<br>type: - 160<br>Videofilm: <br>Street View: ", "beskrivelse": "beskrivelse: \ntype: - 160\nVideofilm: \nStreet View:", "type": "- 160", "Videofilm": "", "Street_View": "", "gx_media_links": null }, "geometry": { "type": "Point", "coordinates": [ 10.631448, 55.054398 ] } },
{ "type": "Feature", "properties": { "Name": "Skårupøre Camping", "description": "beskrivelse: beskrivelse: <br>type: <br>Videofilm: <br>Street View:<br>type: <br>Videofilm: <br>Street View: ", "beskrivelse": "beskrivelse: \ntype: \nVideofilm: \nStreet View:", "type": "", "Videofilm": "", "Street_View": "", "gx_media_links": null }, "geometry": { "type": "Point", "coordinates": [ 10.708874, 55.060551 ] } },
{ "type": "Feature", "properties": { "Name": "Møllegaardens Strand Camping Thurø", "description": "beskrivelse: beskrivelse: <br>type: <br>Videofilm: <br>Street View:<br>type: <br>Videofilm: <br>Street View: ", "beskrivelse": "beskrivelse: \ntype: \nVideofilm: \nStreet View:", "type": "", "Videofilm": "", "Street_View": "", "gx_media_links": null }, "geometry": { "type": "Point", "coordinates": [ 10.702691, 55.053115 ] } },
{ "type": "Feature", "properties": { "Name": "Thurø Camping", "description": "beskrivelse: beskrivelse: <br>type: <br>Videofilm: <br>Street View:<br>type: <br>Videofilm: <br>Street View: ", "beskrivelse": "beskrivelse: \ntype: \nVideofilm: \nStreet View:", "type": "", "Videofilm": "", "Street_View": "", "gx_media_links": null }, "geometry": { "type": "Point", "coordinates": [ 10.710355, 55.043401 ] } },
{ "type": "Feature", "properties": { "Name": "Carlsberg Camping ApS", "description": "beskrivelse: beskrivelse: <br>type: <br>Videofilm: <br>Street View:<br>type: <br>Videofilm: <br>Street View: ", "beskrivelse": "beskrivelse: \ntype: \nVideofilm: \nStreet View:", "type": "", "Videofilm": "", "Street_View": "", "gx_media_links": null }, "geometry": { "type": "Point", "coordinates": [ 10.618386, 55.032517 ] } },
{ "type": "Feature", "properties": { "Name": "Tåsinge Camping", "description": "beskrivelse: beskrivelse: <br>type: - 160<br>Videofilm: <br>Street View:<br>type: - 160<br>Videofilm: <br>Street View: ", "beskrivelse": "beskrivelse: \ntype: - 160\nVideofilm: \nStreet View:", "type": "- 160", "Videofilm": "", "Street_View": "", "gx_media_links": null }, "geometry": { "type": "Point", "coordinates": [ 10.631833, 54.978133 ] } },
{ "type": "Feature", "properties": { "Name": "Henne Strand Camping & Resort", "description": "beskrivelse: beskrivelse: <br>type: <br>Videofilm: <br>Street View:<br>type: <br>Videofilm: <br>Street View: ", "beskrivelse": "beskrivelse: \ntype: \nVideofilm: \nStreet View:", "type": "", "Videofilm": "", "Street_View": "", "gx_media_links": null }, "geometry": { "type": "Point", "coordinates": [ 8.185008, 55.738597 ] } },
{ "type": "Feature", "properties": { "Name": "Nyborg Strandcamping", "description": "beskrivelse: beskrivelse: <br>type: <br>Videofilm: <br>Street View:<br>type: <br>Videofilm: <br>Street View: ", "beskrivelse": "beskrivelse: \ntype: \nVideofilm: \nStreet View:", "type": "", "Videofilm": "", "Street_View": "", "gx_media_links": null }, "geometry": { "type": "Point", "coordinates": [ 10.824497, 55.304704 ] } },
{ "type": "Feature", "properties": { "Name": "Kerteminde Camping", "description": "beskrivelse: beskrivelse: <br>type: <br>Videofilm: <br>Street View:<br>type: <br>Videofilm: <br>Street View: ", "beskrivelse": "beskrivelse: \ntype: \nVideofilm: \nStreet View:", "type": "", "Videofilm": "", "Street_View": "", "gx_media_links": null }, "geometry": { "type": "Point", "coordinates": [ 10.669913, 55.464833 ] } },
{ "type": "Feature", "properties": { "Name": "Fyns Hoved Camping", "description": "beskrivelse: beskrivelse: <br>type: <br>Videofilm: <br>Street View:<br>type: <br>Videofilm: <br>Street View: ", "beskrivelse": "beskrivelse: \ntype: \nVideofilm: \nStreet View:", "type": "", "Videofilm": "", "Street_View": "", "gx_media_links": null }, "geometry": { "type": "Point", "coordinates": [ 10.623071, 55.60734 ] } },
{ "type": "Feature", "properties": { "Name": "Flyvesandets Camping", "description": "beskrivelse: beskrivelse: <br>type: <br>Videofilm: <br>Street View:<br>type: <br>Videofilm: <br>Street View: ", "beskrivelse": "beskrivelse: \ntype: \nVideofilm: \nStreet View:", "type": "", "Videofilm": "", "Street_View": "", "gx_media_links": null }, "geometry": { "type": "Point", "coordinates": [ 10.30082, 55.620496 ] } },
{ "type": "Feature", "properties": { "Name": "Bildsø Camping", "description": "beskrivelse: beskrivelse: <br>type: <br>Videofilm: <br>Street View:<br>type: <br>Videofilm: <br>Street View: ", "beskrivelse": "beskrivelse: \ntype: \nVideofilm: \nStreet View:", "type": "", "Videofilm": "", "Street_View": "", "gx_media_links": null }, "geometry": { "type": "Point", "coordinates": [ 11.210267, 55.455076 ] } },
{ "type": "Feature", "properties": { "Name": "Slagelse campingplads", "description": "beskrivelse: beskrivelse: <br>type: <br>Videofilm: <br>Street View:<br>type: <br>Videofilm: <br>Street View: ", "beskrivelse": "beskrivelse: \ntype: \nVideofilm: \nStreet View:", "type": "", "Videofilm": "", "Street_View": "", "gx_media_links": null }, "geometry": { "type": "Point", "coordinates": [ 11.345608, 55.394279 ] } },
{ "type": "Feature", "properties": { "Name": "Corona Camping", "description": "beskrivelse: beskrivelse: <br>type: <br>Videofilm: <br>Street View:<br>type: <br>Videofilm: <br>Street View: ", "beskrivelse": "beskrivelse: \ntype: \nVideofilm: \nStreet View:", "type": "", "Videofilm": "", "Street_View": "", "gx_media_links": null }, "geometry": { "type": "Point", "coordinates": [ 11.943807, 55.4647 ] } },
{ "type": "Feature", "properties": { "Name": "Sjelborg Camping A\/S", "description": "beskrivelse: beskrivelse: <br>type: <br>Videofilm: <br>Street View:<br>type: <br>Videofilm: <br>Street View: ", "beskrivelse": "beskrivelse: \ntype: \nVideofilm: \nStreet View:", "type": "", "Videofilm": "", "Street_View": "", "gx_media_links": null }, "geometry": { "type": "Point", "coordinates": [ 8.339384, 55.543577 ] } },
{ "type": "Feature", "properties": { "Name": "Stjerne Camping", "description": "beskrivelse: beskrivelse: <br>type: <br>Videofilm: <br>Street View:<br>type: <br>Videofilm: <br>Street View: ", "beskrivelse": "beskrivelse: \ntype: \nVideofilm: \nStreet View:", "type": "", "Videofilm": "", "Street_View": "", "gx_media_links": null }, "geometry": { "type": "Point", "coordinates": [ 8.142449, 55.618522 ] } },
{ "type": "Feature", "properties": { "Name": "Ølgod caming", "description": "beskrivelse: beskrivelse: www.oelgod-camping.dk<br>type: -120<br>Videofilm: <br>Street View:<br>type: -120<br>Videofilm: <br>Street View: ", "beskrivelse": "beskrivelse: www.oelgod-camping.dk\ntype: -120\nVideofilm: \nStreet View:", "type": "-120", "Videofilm": "", "Street_View": "", "gx_media_links": null }, "geometry": { "type": "Point", "coordinates": [ 8.614002, 55.814095 ] } },
{ "type": "Feature", "properties": { "Name": "Henne Strand Camping & Resort", "description": "beskrivelse: beskrivelse: <br>type: <br>Videofilm: <br>Street View:<br>type: <br>Videofilm: <br>Street View: ", "beskrivelse": "beskrivelse: \ntype: \nVideofilm: \nStreet View:", "type": "", "Videofilm": "", "Street_View": "", "gx_media_links": null }, "geometry": { "type": "Point", "coordinates": [ 8.185008, 55.738597 ] } },
{ "type": "Feature", "properties": { "Name": "Houstrup Camping", "description": "beskrivelse: beskrivelse: <br>type: <br>Videofilm: <br>Street View:<br>type: <br>Videofilm: <br>Street View: ", "beskrivelse": "beskrivelse: \ntype: \nVideofilm: \nStreet View:", "type": "", "Videofilm": "", "Street_View": "", "gx_media_links": null }, "geometry": { "type": "Point", "coordinates": [ 8.239157, 55.774168 ] } },
{ "type": "Feature", "properties": { "Name": "Ringkøbing Camping", "description": "beskrivelse: beskrivelse: <br>type: - 160<br>Videofilm: <br>Street View:<br>type: - 160<br>Videofilm: <br>Street View: ", "beskrivelse": "beskrivelse: \ntype: - 160\nVideofilm: \nStreet View:", "type": "- 160", "Videofilm": "", "Street_View": "", "gx_media_links": null }, "geometry": { "type": "Point", "coordinates": [ 8.316956, 56.088672 ] } },
{ "type": "Feature", "properties": { "Name": "Søndervig Camping", "description": "beskrivelse: beskrivelse: www.soendervigcamping.dk<br>type: -120<br>Videofilm: <br>Street View:<br>type: -120<br>Videofilm: <br>Street View: ", "beskrivelse": "beskrivelse: www.soendervigcamping.dk\ntype: -120\nVideofilm: \nStreet View:", "type": "-120", "Videofilm": "", "Street_View": "", "gx_media_links": null }, "geometry": { "type": "Point", "coordinates": [ 8.117524, 56.111699 ] } },
{ "type": "Feature", "properties": { "Name": "Hvide Sande Camping", "description": "beskrivelse: beskrivelse: <br>type: <br>Videofilm: <br>Street View:<br>type: <br>Videofilm: <br>Street View: ", "beskrivelse": "beskrivelse: \ntype: \nVideofilm: \nStreet View:", "type": "", "Videofilm": "", "Street_View": "", "gx_media_links": null }, "geometry": { "type": "Point", "coordinates": [ 8.134289, 55.986987 ] } },
{ "type": "Feature", "properties": { "Name": "Camping & Familiepark West", "description": "beskrivelse: beskrivelse: <br>type: <br>Videofilm: <br>Street View:<br>type: <br>Videofilm: <br>Street View: ", "beskrivelse": "beskrivelse: \ntype: \nVideofilm: \nStreet View:", "type": "", "Videofilm": "", "Street_View": "", "gx_media_links": null }, "geometry": { "type": "Point", "coordinates": [ 8.296102, 56.140557 ] } },
{ "type": "Feature", "properties": { "Name": "Tarm Camping", "description": "beskrivelse: beskrivelse: <br>type: - 160<br>Videofilm: <br>Street View:<br>type: - 160<br>Videofilm: <br>Street View: ", "beskrivelse": "beskrivelse: \ntype: - 160\nVideofilm: \nStreet View:", "type": "- 160", "Videofilm": "", "Street_View": "", "gx_media_links": null }, "geometry": { "type": "Point", "coordinates": [ 8.513334, 55.892934 ] } },
{ "type": "Feature", "properties": { "Name": "Thyborøn Camping Hotel & Hytteby", "description": "beskrivelse: beskrivelse: <br>type: <br>Videofilm: <br>Street View:<br>type: <br>Videofilm: <br>Street View: ", "beskrivelse": "beskrivelse: \ntype: \nVideofilm: \nStreet View:", "type": "", "Videofilm": "", "Street_View": "", "gx_media_links": null }, "geometry": { "type": "Point", "coordinates": [ 8.205354, 56.69477 ] } },
{ "type": "Feature", "properties": { "Name": "Thorsminde Camping ApS", "description": "beskrivelse: beskrivelse: <br>type: <br>Videofilm: <br>Street View:<br>type: <br>Videofilm: <br>Street View: ", "beskrivelse": "beskrivelse: \ntype: \nVideofilm: \nStreet View:", "type": "", "Videofilm": "", "Street_View": "", "gx_media_links": null }, "geometry": { "type": "Point", "coordinates": [ 8.122566, 56.376246 ] } },
{ "type": "Feature", "properties": { "Name": "Bremdal Camping & Struer Vandrehjem ApS", "description": "beskrivelse: beskrivelse: <br>type: <br>Videofilm: <br>Street View:<br>type: <br>Videofilm: <br>Street View: ", "beskrivelse": "beskrivelse: \ntype: \nVideofilm: \nStreet View:", "type": "", "Videofilm": "", "Street_View": "", "gx_media_links": null }, "geometry": { "type": "Point", "coordinates": [ 8.582064, 56.502731 ] } },
{ "type": "Feature", "properties": { "Name": "Humlum Fiskerleje & Camping", "description": "beskrivelse: beskrivelse: <br>type: <br>Videofilm: <br>Street View:<br>type: <br>Videofilm: <br>Street View: ", "beskrivelse": "beskrivelse: \ntype: \nVideofilm: \nStreet View:", "type": "", "Videofilm": "", "Street_View": "", "gx_media_links": null }, "geometry": { "type": "Point", "coordinates": [ 8.571689, 56.548921 ] } },
{ "type": "Feature", "properties": { "Name": "Venø Klit Camping", "description": "beskrivelse: beskrivelse: <br>type: - 160<br>Videofilm: <br>Street View:<br>type: - 160<br>Videofilm: <br>Street View: ", "beskrivelse": "beskrivelse: \ntype: - 160\nVideofilm: \nStreet View:", "type": "- 160", "Videofilm": "", "Street_View": "", "gx_media_links": null }, "geometry": { "type": "Point", "coordinates": [ 8.631248, 56.55024 ] } },
{ "type": "Feature", "properties": { "Name": "Jammerbugt Camping - Hytter - Motel", "description": "beskrivelse: beskrivelse: <br>type: <br>Videofilm: <br>Street View:<br>type: <br>Videofilm: <br>Street View: ", "beskrivelse": "beskrivelse: \ntype: \nVideofilm: \nStreet View:", "type": "", "Videofilm": "", "Street_View": "", "gx_media_links": null }, "geometry": { "type": "Point", "coordinates": [ 9.099956, 57.109116 ] } },
{ "type": "Feature", "properties": { "Name": "Klim Strand Camping", "description": "beskrivelse: beskrivelse: <br>type: <br>Videofilm: <br>Street View:<br>type: <br>Videofilm: <br>Street View: ", "beskrivelse": "beskrivelse: \ntype: \nVideofilm: \nStreet View:", "type": "", "Videofilm": "", "Street_View": "", "gx_media_links": null }, "geometry": { "type": "Point", "coordinates": [ 9.171808, 57.13384 ] } },
{ "type": "Feature", "properties": { "Name": "Svinkløv Camping", "description": "beskrivelse: beskrivelse: <br>type: <br>Videofilm: <br>Street View:<br>type: <br>Videofilm: <br>Street View: ", "beskrivelse": "beskrivelse: \ntype: \nVideofilm: \nStreet View:", "type": "", "Videofilm": "", "Street_View": "", "gx_media_links": null }, "geometry": { "type": "Point", "coordinates": [ 9.32236, 57.149473 ] } },
{ "type": "Feature", "properties": { "Name": "Blokhus By Camping", "description": "beskrivelse: beskrivelse: <br>type: <br>Videofilm: <br>Street View:<br>type: <br>Videofilm: <br>Street View: ", "beskrivelse": "beskrivelse: \ntype: \nVideofilm: \nStreet View:", "type": "", "Videofilm": "", "Street_View": "", "gx_media_links": null },