{
"type": "FeatureCollection",
"name": "Sanitet",
"crs": { "type": "name", "properties": { "name": "urn:ogc:def:crs:OGC:1.3:CRS84" } },
"features": [
{ "type": "Feature", "properties": { "time": "2020\/06\/02 22:09:27+00", "name": "Allinge Cirkel K", "cmt": " ", "desc": "2020: tømning toilet og gråvand. Frisk vand På bagsiden af bygningen.", "gpxx_WaypointExtension": "      " }, "geometry": { "type": "Point", "coordinates": [ 14.79922, 55.27166 ] } },
{ "type": "Feature", "properties": { "time": "2020\/06\/02 22:11:07+00", "name": "Rønne Renseanlæg", "cmt": " ", "desc": "gratis tømning af toilet og gråvand   ", "gpxx_WaypointExtension": "      " }, "geometry": { "type": "Point", "coordinates": [ 14.68958, 55.10305 ] } },
{ "type": "Feature", "properties": { "time": "2020\/06\/03 21:01:13+00", "name": "Bagenkop Havn", "cmt": " ", "desc": "2020: overnatning kr 130,- inkl el, bad, WIFI tømning af toilet og gråvand ", "gpxx_WaypointExtension": "      " }, "geometry": { "type": "Point", "coordinates": [ 10.6758, 54.75166 ] } },
{ "type": "Feature", "properties": { "time": "2020\/06\/03 21:02:27+00", "name": "Lohals Havn", "cmt": " ", "desc": "2020: overnatning kr 135,- inkl el tømning af toilet og gråvand ", "gpxx_WaypointExtension": "      " }, "geometry": { "type": "Point", "coordinates": [ 10.90227, 55.13513 ] } },
{ "type": "Feature", "properties": { "time": "2020\/06\/07 15:42:36+00", "name": "Tårs Lystbådehavn", "cmt": " ", "desc": "2020 : overnatning kr 125,- tømning af gråvand og kassette", "gpxx_WaypointExtension": "      " }, "geometry": { "type": "Point", "coordinates": [ 11.02366, 54.87827 ] } },
{ "type": "Feature", "properties": { "time": "2020\/06\/07 15:43:53+00", "name": "Sakskøbing Lystbådehavn", "cmt": " ", "desc": "2020: overnatning kr 125,- inkl wifi tømning af toilet ( og gråvand ? )  ", "gpxx_WaypointExtension": "      " }, "geometry": { "type": "Point", "coordinates": [ 11.62069, 54.81072 ] } },
{ "type": "Feature", "properties": { "time": "2020\/06\/07 15:45:19+00", "name": "Gedser Lystbådehavn", "cmt": " ", "desc": "2020: overnatning stellplads kr 135,- inkl strøm tømning af kassette og gråvand.", "gpxx_WaypointExtension": "      " }, "geometry": { "type": "Point", "coordinates": [ 11.92326, 54.58037 ] } },
{ "type": "Feature", "properties": { "time": "2020\/06\/07 15:46:33+00", "name": "Eskilstrup E47", "cmt": " ", "desc": "tømning af toilet og grå. Nordgående retning. ", "gpxx_WaypointExtension": "      " }, "geometry": { "type": "Point", "coordinates": [ 11.82088, 54.84069 ] } },
{ "type": "Feature", "properties": { "time": "2020\/06\/07 15:48:20+00", "name": "Nørre Alslev Transportcenter afk 43", "cmt": " ", "desc": "tømning af toilet og gråvand    ", "gpxx_WaypointExtension": "      " }, "geometry": { "type": "Point", "coordinates": [ 11.89822, 54.9 ] } },
{ "type": "Feature", "properties": { "time": "2020\/06\/07 15:49:25+00", "name": "Farø P plads", "cmt": " ", "desc": "tømning af gråvand og kassette", "gpxx_WaypointExtension": "      " }, "geometry": { "type": "Point", "coordinates": [ 11.98522, 54.94958 ] } },
{ "type": "Feature", "properties": { "time": "2020\/06\/07 15:50:54+00", "name": "Kalvehave Havn", "cmt": " ", "desc": "2020 : pris overnatningkr 170,- tømning af toilet og gråvand  ", "gpxx_WaypointExtension": "      " }, "geometry": { "type": "Point", "coordinates": [ 12.1661, 54.99584 ] } },
{ "type": "Feature", "properties": { "time": "2020\/06\/07 15:52:26+00", "name": "Tappernøje øst E47", "cmt": " ", "desc": "AutocamperService", "gpxx_WaypointExtension": "      " }, "geometry": { "type": "Point", "coordinates": [ 11.95862, 55.16645 ] } },
{ "type": "Feature", "properties": { "time": "2020\/06\/07 15:53:38+00", "name": "Karrebæksminde", "cmt": " ", "desc": "tømning af gråvand og kassette\nType\nSaniService + Stellplatz", "gpxx_WaypointExtension": "      " }, "geometry": { "type": "Point", "coordinates": [ 11.65015, 55.17703 ] } },
{ "type": "Feature", "properties": { "time": "2020\/06\/07 15:54:52+00", "name": "Rødvig Havn", "cmt": " ", "desc": "2020: pris overnatning kr 120,- inkl bad \/ toilet. Tømning af toilet og gråvand over riste. ", "gpxx_WaypointExtension": "      " }, "geometry": { "type": "Point", "coordinates": [ 12.37355, 55.25447 ] } },
{ "type": "Feature", "properties": { "time": "2020\/06\/07 15:56:21+00", "name": "Skælskør Havn", "cmt": " ", "desc": "tømning af gråvand og kassette\nType\nSaniService + Stellplatz", "gpxx_WaypointExtension": "      " }, "geometry": { "type": "Point", "coordinates": [ 11.29018, 55.25274 ] } },
{ "type": "Feature", "properties": { "time": "2020\/06\/07 15:57:53+00", "name": "Piberhus Vest", "cmt": " ", "desc": "Autocamperservice", "gpxx_WaypointExtension": "      " }, "geometry": { "type": "Point", "coordinates": [ 12.03495, 55.32545 ] } },
{ "type": "Feature", "properties": { "time": "2020\/06\/07 15:59:12+00", "name": "Korsør Lystbådehavn", "cmt": " ", "desc": "2020: overnatning kr 160,- inkl strøm og wifi tømning af gråvand og kassette  ", "gpxx_WaypointExtension": "      " }, "geometry": { "type": "Point", "coordinates": [ 11.13155, 55.326 ] } },
{ "type": "Feature", "properties": { "time": "2020\/06\/07 16:00:17+00", "name": "Halsskov Storebæltvej 44", "cmt": " ", "desc": "tømning af toilet og gråvand v\/Uno-X", "gpxx_WaypointExtension": "      " }, "geometry": { "type": "Point", "coordinates": [ 11.12598, 55.35062 ] } },
{ "type": "Feature", "properties": { "time": "2020\/06\/07 16:01:21+00", "name": "Storebælt Korsør syd", "cmt": " ", "desc": "autocamperservice", "gpxx_WaypointExtension": "      " }, "geometry": { "type": "Point", "coordinates": [ 11.10878, 55.34835 ] } },
{ "type": "Feature", "properties": { "time": "2020\/06\/07 16:02:31+00", "name": "Tuelsø Syd E20", "cmt": " ", "desc": "autocamperservice", "gpxx_WaypointExtension": "      " }, "geometry": { "type": "Point", "coordinates": [ 11.59739, 55.45575 ] } },
{ "type": "Feature", "properties": { "time": "2020\/06\/07 16:03:51+00", "name": "Tuelsø nord E20", "cmt": " ", "desc": "autocamperservice", "gpxx_WaypointExtension": "      " }, "geometry": { "type": "Point", "coordinates": [ 11.60617, 55.45525 ] } },
{ "type": "Feature", "properties": { "time": "2020\/06\/07 16:38:02+00", "name": "Karlslunde øst E20", "cmt": " ", "desc": "Autocamperservice", "gpxx_WaypointExtension": "      " }, "geometry": { "type": "Point", "coordinates": [ 12.231, 55.56061 ] } },
{ "type": "Feature", "properties": { "time": "2020\/06\/07 16:38:58+00", "name": "Karlslunde Vest E20", "cmt": " ", "desc": "Autocamperservice", "gpxx_WaypointExtension": "      " }, "geometry": { "type": "Point", "coordinates": [ 12.23014, 55.56165 ] } },
{ "type": "Feature", "properties": { "time": "2020\/06\/07 16:40:53+00", "name": "Ishøj Strand Camping", "cmt": " ", "desc": "2020: tømning kr 50,- vand 50,- u\/overnatning Overnatning kr 250,- inkl bad\/toilet, tillæg strøm", "gpxx_WaypointExtension": "      " }, "geometry": { "type": "Point", "coordinates": [ 12.36975, 55.61341 ] } },
{ "type": "Feature", "properties": { "time": "2020\/06\/07 16:42:21+00", "name": "Farum Rensningsanlæg", "cmt": " ", "desc": "Gratis tømning af toilet og gråvand. Adgang i åbningstiden. Sommervej 20 Farum", "gpxx_WaypointExtension": "      " }, "geometry": { "type": "Point", "coordinates": [ 12.40752, 55.81341 ] } },
{ "type": "Feature", "properties": { "time": "2020\/06\/07 16:43:49+00", "name": "Frederikssund Lystbådehavn", "cmt": " ", "desc": "tømning af gråvand og kassette\nType\nSaniService + Stellplatz", "gpxx_WaypointExtension": "      " }, "geometry": { "type": "Point", "coordinates": [ 12.06408, 55.82779 ] } },
{ "type": "Feature", "properties": { "time": "2020\/06\/07 16:45:02+00", "name": "Lynæs Havn", "cmt": " ", "desc": "2020: pris kr 165,- mellem kl 16 og kl 08. gratis tømning af toilet og gråvand og frisk vand.", "gpxx_WaypointExtension": "      " }, "geometry": { "type": "Point", "coordinates": [ 11.86369, 55.94353 ] } },
{ "type": "Feature", "properties": { "time": "2020\/06\/07 16:48:42+00", "name": "Nykøbing Sjælland Lystbådehavn", "cmt": " ", "desc": "2020: Pris kr 150,- overnatning tømning af gråvand og kassette  ", "gpxx_WaypointExtension": "      " }, "geometry": { "type": "Point", "coordinates": [ 11.67115, 55.91493 ] } },
{ "type": "Feature", "properties": { "time": "2020\/06\/07 16:50:04+00", "name": "Sjællands Odde Havn", "cmt": " ", "desc": "2020: pris overnatning kr 150,- tømning af toilet og gråvand  ", "gpxx_WaypointExtension": "      " }, "geometry": { "type": "Point", "coordinates": [ 11.37138, 55.97083 ] } },
{ "type": "Feature", "properties": { "time": "2020\/06\/07 16:51:52+00", "name": "Hjejlevej E20 #44 Nyborg", "cmt": " ", "desc": "autocamperservice", "gpxx_WaypointExtension": "      " }, "geometry": { "type": "Point", "coordinates": [ 10.84016, 55.29752 ] } },
{ "type": "Feature", "properties": { "time": "2020\/06\/07 16:53:07+00", "name": "Kerteminde Havn", "cmt": " ", "desc": "2020: overnatning kr 140,- inkl strøm og wifi tømning af toilet og gråvand ", "gpxx_WaypointExtension": "      " }, "geometry": { "type": "Point", "coordinates": [ 10.66442, 55.45271 ] } },
{ "type": "Feature", "properties": { "time": "2020\/06\/07 16:54:19+00", "name": "Bogense Havn", "cmt": " ", "desc": "2020: overnatning kr 170,- inkl strøm og wifi tømning af toilet og gråvand  ", "gpxx_WaypointExtension": "      " }, "geometry": { "type": "Point", "coordinates": [ 10.0785, 55.56847 ] } },
{ "type": "Feature", "properties": { "time": "2020\/06\/07 16:55:49+00", "name": "Kildebjerg N E20", "cmt": " ", "desc": "autocamperservice", "gpxx_WaypointExtension": "      " }, "geometry": { "type": "Point", "coordinates": [ 10.18967, 55.39456 ] } },
{ "type": "Feature", "properties": { "time": "2020\/06\/07 16:56:46+00", "name": "Kildebjerg syd E20", "cmt": " ", "desc": "autocamperservice", "gpxx_WaypointExtension": "      " }, "geometry": { "type": "Point", "coordinates": [ 10.18721, 55.39401 ] } },
{ "type": "Feature", "properties": { "time": "2020\/06\/07 16:57:53+00", "name": "Lillebælt Syd E20", "cmt": " ", "desc": "autocamperservice", "gpxx_WaypointExtension": "      " }, "geometry": { "type": "Point", "coordinates": [ 9.87987, 55.47785 ] } },
{ "type": "Feature", "properties": { "time": "2020\/06\/07 16:58:43+00", "name": "Lillebælt N E20", "cmt": " ", "desc": "autocamperservice", "gpxx_WaypointExtension": "      " }, "geometry": { "type": "Point", "coordinates": [ 9.84549, 55.48764 ] } },
{ "type": "Feature", "properties": { "time": "2020\/06\/07 17:01:11+00", "name": "Strib Havn", "cmt": " ", "desc": "2020 : overnatning kr 150,- inkl strøm tømning af toilet og gråvand ", "gpxx_WaypointExtension": "      " }, "geometry": { "type": "Point", "coordinates": [ 9.76296, 55.53798 ] } },
{ "type": "Feature", "properties": { "time": "2020\/06\/07 17:02:35+00", "name": "Svendborg Havn", "cmt": " ", "desc": "2020: tømning af toilet. Gråvand ? Vand ? ", "gpxx_WaypointExtension": "      " }, "geometry": { "type": "Point", "coordinates": [ 10.61775, 55.06136 ] } },
{ "type": "Feature", "properties": { "time": "2020\/06\/07 17:03:33+00", "name": "Svendborg Svømmehal", "cmt": " ", "desc": "tømning af toilet og gråvand", "gpxx_WaypointExtension": "      " }, "geometry": { "type": "Point", "coordinates": [ 10.57869, 55.05697 ] } },
{ "type": "Feature", "properties": { "time": "2020\/06\/07 17:04:43+00", "name": "Fåborg Havn", "cmt": " ", "desc": "2020: kr 145,- inkl wifi tømning af toilet og gråvand", "gpxx_WaypointExtension": "      " }, "geometry": { "type": "Point", "coordinates": [ 10.23338, 55.09655 ] } },
{ "type": "Feature", "properties": { "time": "2020\/06\/07 17:06:02+00", "name": "Falsled Lystbådehavn", "cmt": " ", "desc": "2020: overnatning kr 125,- kun med kort tømning af toilet, ikke rist til gråvand  ", "gpxx_WaypointExtension": "      " }, "geometry": { "type": "Point", "coordinates": [ 10.14621, 55.15316 ] } },
{ "type": "Feature", "properties": { "time": "2020\/06\/07 17:06:55+00", "name": "Assens Marina", "cmt": " ", "desc": "2020: overnatning kr 150,- inkl strøm og wifi tømning af toilet  ", "gpxx_WaypointExtension": "      " }, "geometry": { "type": "Point", "coordinates": [ 9.88399, 55.26753 ] } },
{ "type": "Feature", "properties": { "time": "2020\/06\/07 20:10:26+00", "name": "Søby Ærø Camping", "cmt": " ", "desc": "2020: tømning m\/ vand kr 30,- u\/overnatning Overnatning kr 200 i lav, kr 300 i højsæson. ", "gpxx_WaypointExtension": "      " }, "geometry": { "type": "Point", "coordinates": [ 10.24477, 54.93658 ] } },
{ "type": "Feature", "properties": { "time": "2020\/06\/07 20:11:57+00", "name": "Augustenborg", "cmt": " ", "desc": "ømning af gråvand og kassette\nType\nSaniService + Stellplatz", "gpxx_WaypointExtension": "      " }, "geometry": { "type": "Point", "coordinates": [ 9.85457, 54.94684 ] } },
{ "type": "Feature", "properties": { "time": "2020\/06\/07 20:13:08+00", "name": "Kegnæs Syd Als", "cmt": " ", "desc": "Gratis tømning af toilet. P max 5 tim. ", "gpxx_WaypointExtension": "      " }, "geometry": { "type": "Point", "coordinates": [ 9.99166, 54.85497 ] } },
{ "type": "Feature", "properties": { "time": "2020\/06\/07 20:14:06+00", "name": "Nordborg Camperplads", "cmt": " ", "desc": "tømning af gråvand og kassette\nType\nSaniService + Stellplatz", "gpxx_WaypointExtension": "      " }, "geometry": { "type": "Point", "coordinates": [ 9.86811, 54.98159 ] } },
{ "type": "Feature", "properties": { "time": "2020\/06\/07 20:35:51+00", "name": "Frøslev Øst E45", "cmt": " ", "desc": "autocamperservice", "gpxx_WaypointExtension": "      " }, "geometry": { "type": "Point", "coordinates": [ 9.3301, 54.82655 ] } },
{ "type": "Feature", "properties": { "time": "2020\/06\/07 20:37:07+00", "name": "Frøslev Vest E45", "cmt": " ", "desc": "autocamperservice", "gpxx_WaypointExtension": "      " }, "geometry": { "type": "Point", "coordinates": [ 9.33306, 54.8319 ] } },
{ "type": "Feature", "properties": { "time": "2020\/06\/07 20:38:13+00", "name": "OK Truck Padborg", "cmt": " ", "desc": "Gratis tømning af toilet og gråvand Ingen parkering. ", "gpxx_WaypointExtension": "      " }, "geometry": { "type": "Point", "coordinates": [ 9.34116, 54.83613 ] } },
{ "type": "Feature", "properties": { "time": "2020\/06\/07 20:39:39+00", "name": "Tønder Stellplads", "cmt": " ", "desc": "tømning af gråvand og kassette\nType\nSaniService + Stellplatz", "gpxx_WaypointExtension": "      " }, "geometry": { "type": "Point", "coordinates": [ 8.87494, 54.93379 ] } },
{ "type": "Feature", "properties": { "time": "2020\/06\/07 20:40:55+00", "name": "Løgumkloster -rute25-", "cmt": " ", "desc": "Grænsevej, tømning af toilet og gråvand", "gpxx_WaypointExtension": "      " }, "geometry": { "type": "Point", "coordinates": [ 8.89595, 55.02188 ] } },
{ "type": "Feature", "properties": { "time": "2020\/06\/07 20:47:36+00", "name": "Løgumkloster", "cmt": " ", "desc": "Tømning af gråvand og kassette\nType\nSaniService + Stellplatz", "gpxx_WaypointExtension": "      " }, "geometry": { "type": "Point", "coordinates": [ 8.94898, 55.06096 ] } },
{ "type": "Feature", "properties": { "time": "2020\/06\/08 15:52:53+00", "name": "Årslev Øst E45", "cmt": " ", "desc": "autocamperservice", "gpxx_WaypointExtension": "      " }, "geometry": { "type": "Point", "coordinates": [ 9.36314, 55.02176 ] } },
{ "type": "Feature", "properties": { "time": "2020\/06\/08 15:54:16+00", "name": "Camperstop Åbenrå", "cmt": " ", "desc": "2020: tømning inkl vand kr 75,- Overnatning kr 100,- pr 24 tim + strøm og bad.", "gpxx_WaypointExtension": "      " }, "geometry": { "type": "Point", "coordinates": [ 9.41419, 55.02472 ] } },
{ "type": "Feature", "properties": { "time": "2020\/06\/08 15:55:18+00", "name": "Aabenraa autocamperplads", "cmt": " ", "desc": "tømning af gråvand og kassette\nType\nSaniService + Stellplatz", "gpxx_WaypointExtension": "      " }, "geometry": { "type": "Point", "coordinates": [ 9.42298, 55.03372 ] } },
{ "type": "Feature", "properties": { "time": "2020\/06\/08 15:56:33+00", "name": "Rømø", "cmt": " ", "desc": "tømning af gråvand og kassette\nType\nSaniService + Stellplatz", "gpxx_WaypointExtension": "      " }, "geometry": { "type": "Point", "coordinates": [ 8.54013, 55.09324 ] } },
{ "type": "Feature", "properties": { "time": "2020\/06\/08 15:57:43+00", "name": "Ustrup Øst E45", "cmt": " ", "desc": "autocamperservice", "gpxx_WaypointExtension": "      " }, "geometry": { "type": "Point", "coordinates": [ 9.3744, 55.21566 ] } },
{ "type": "Feature", "properties": { "time": "2020\/06\/08 15:58:47+00", "name": "Ustrup Vest E45", "cmt": " ", "desc": "autocamperservice", "gpxx_WaypointExtension": "      " }, "geometry": { "type": "Point", "coordinates": [ 9.37305, 55.21638 ] } },
{ "type": "Feature", "properties": { "time": "2020\/06\/08 16:00:02+00", "name": "Haderslev Havn", "cmt": " ", "desc": "2020: overnatning kr 130,- inkl wifI tømning af toilet og gråvand ", "gpxx_WaypointExtension": "      " }, "geometry": { "type": "Point", "coordinates": [ 9.49934, 55.24742 ] } },
{ "type": "Feature", "properties": { "time": "2020\/06\/08 16:01:17+00", "name": "Gram Slot", "cmt": " ", "desc": "2020: overnatn kr 80,- inkl vand wifi, evt strøm tømning af toilet og gråvand , adg til toilet \/ bad", "gpxx_WaypointExtension": "      " }, "geometry": { "type": "Point", "coordinates": [ 9.05923, 55.29738 ] } },
{ "type": "Feature", "properties": { "time": "2020\/06\/08 16:02:21+00", "name": "Ribe Syd stellplads", "cmt": " ", "desc": "Gratis tømning af toilet og gråvand. Fri parkering af AC - også lange vogne.  ", "gpxx_WaypointExtension": "      " }, "geometry": { "type": "Point", "coordinates": [ 8.75766, 55.32491 ] } },
{ "type": "Feature", "properties": { "time": "2020\/06\/08 16:03:22+00", "name": "Storkesøen Ribe", "cmt": " ", "desc": "tømning af gråvand og kassette\nType\nSaniService + Stellplatz", "gpxx_WaypointExtension": "      " }, "geometry": { "type": "Point", "coordinates": [ 8.75891, 55.31665 ] } },
{ "type": "Feature", "properties": { "time": "2020\/06\/08 16:05:51+00", "name": "FB Campcenter Skodborg", "cmt": " ", "desc": "tømning af gråvand og kassette, frisk vand\nType\nSaniService + Stellplatz", "gpxx_WaypointExtension": "      " }, "geometry": { "type": "Point", "coordinates": [ 9.16057, 55.42568 ] } },
{ "type": "Feature", "properties": { "time": "2020\/06\/08 16:12:42+00", "name": "Kolding Lystbådehavn", "cmt": " ", "desc": "tømning af gråvand og kassette\nType\nSaniService + Stellplatz", "gpxx_WaypointExtension": "      " }, "geometry": { "type": "Point", "coordinates": [ 9.49966, 55.48739 ] } },
{ "type": "Feature", "properties": { "time": "2020\/06\/08 20:58:04+00", "name": "Hylkedal Øst E45", "cmt": " ", "desc": "autocamperservice", "gpxx_WaypointExtension": "      " }, "geometry": { "type": "Point", "coordinates": [ 9.42662, 55.47529 ] } },
{ "type": "Feature", "properties": { "time": "2020\/06\/08 20:59:01+00", "name": "Hylkedal Vest E45", "cmt": " ", "desc": "autocamperservice", "gpxx_WaypointExtension": "      " }, "geometry": { "type": "Point", "coordinates": [ 9.42415, 55.47564 ] } },
{ "type": "Feature", "properties": { "time": "2020\/06\/08 21:00:18+00", "name": "Harte Syd E20", "cmt": " ", "desc": "autocamperservice", "gpxx_WaypointExtension": "      " }, "geometry": { "type": "Point", "coordinates": [ 9.39612, 55.51227 ] } },
{ "type": "Feature", "properties": { "time": "2020\/06\/08 21:01:06+00", "name": "Harte Nord E20", "cmt": " ", "desc": "autocamperservice", "gpxx_WaypointExtension": "      " }, "geometry": { "type": "Point", "coordinates": [ 9.39819, 55.51394 ] } },
{ "type": "Feature", "properties": { "time": "2020\/06\/08 21:02:06+00", "name": "Bjøvlund Syd E20", "cmt": " ", "desc": "autocamperservice", "gpxx_WaypointExtension": "      " }, "geometry": { "type": "Point", "coordinates": [ 8.85188, 55.51693 ] } },
{ "type": "Feature", "properties": { "time": "2020\/06\/08 21:03:32+00", "name": "Bjøvlund Nord E20", "cmt": " ", "desc": "autocamperservice", "gpxx_WaypointExtension": "      " }, "geometry": { "type": "Point", "coordinates": [ 8.84784, 55.51881 ] } },
{ "type": "Feature", "properties": { "time": "2020\/06\/08 21:04:42+00", "name": "Bramming N -rute 11-", "cmt": " ", "desc": "gratis tømning af toilet og gråvand", "gpxx_WaypointExtension": "      " }, "geometry": { "type": "Point", "coordinates": [ 8.65023, 55.47822 ] } },
{ "type": "Feature", "properties": { "time": "2020\/06\/08 21:05:59+00", "name": "Oksbøl -rute431-", "cmt": " ", "desc": "autocamperservice   tømning af toilet og gråvand Blåvandvej kun indkørsel fra vest", "gpxx_WaypointExtension": "      " }, "geometry": { "type": "Point", "coordinates": [ 8.25258, 55.61487 ] } },
{ "type": "Feature", "properties": { "time": "2020\/06\/08 21:07:09+00", "name": "Fredericia Lystbådehavn", "cmt": " ", "desc": "2020: overnatning kr 125,- inkl wifi tømning af toilet ( ikke gråvand )", "gpxx_WaypointExtension": "      " }, "geometry": { "type": "Point", "coordinates": [ 9.72786, 55.55244 ] } },
{ "type": "Feature", "properties": { "time": "2020\/06\/09 15:20:26+00", "name": "Skærup Øst E45", "cmt": " ", "desc": "autocamperservice", "gpxx_WaypointExtension": "      " }, "geometry": { "type": "Point", "coordinates": [ 9.56196, 55.64006 ] } },
{ "type": "Feature", "properties": { "time": "2020\/06\/09 15:21:37+00", "name": "Skærup Vest E45", "cmt": " ", "desc": "autocamperservice", "gpxx_WaypointExtension": "      " }, "geometry": { "type": "Point", "coordinates": [ 9.55922, 55.64251 ] } },
{ "type": "Feature", "properties": { "time": "2020\/06\/09 15:22:42+00", "name": "Vejle Elektro", "cmt": " ", "desc": "tømning af gråvand og kassette\nType\nSaniService + Stellplatz", "gpxx_WaypointExtension": "      " }, "geometry": { "type": "Point", "coordinates": [ 9.56506, 55.72264 ] } },
{ "type": "Feature", "properties": { "time": "2020\/06\/09 15:24:05+00", "name": "Outrup Camperplads", "cmt": " ", "desc": "tømning af gråvand og kassette\nType\nSaniService + Stellplatz", "gpxx_WaypointExtension": "      " }, "geometry": { "type": "Point", "coordinates": [ 8.34665, 55.71551 ] } },
{ "type": "Feature", "properties": { "time": "2020\/06\/09 15:25:07+00", "name": "Kløvergården Put and Take", "cmt": " ", "desc": "tømning af gråvand og kassette\nType\nSaniService + Stellplatz", "gpxx_WaypointExtension": "      " }, "geometry": { "type": "Point", "coordinates": [ 8.30269, 55.76493 ] } },
{ "type": "Feature", "properties": { "time": "2020\/06\/09 15:26:21+00", "name": "Hærvejen Nord -18 -", "cmt": " ", "desc": "autocamperservice    tømning af toilet og gråvand", "gpxx_WaypointExtension": "      " }, "geometry": { "type": "Point", "coordinates": [ 9.39759, 55.83693 ] } },
{ "type": "Feature", "properties": { "time": "2020\/06\/09 15:27:24+00", "name": "Horsens Lystbådehavn", "cmt": " ", "desc": "tømning af gråvand og kassette\nType\nSaniService + Stellplatz", "gpxx_WaypointExtension": "      " }, "geometry": { "type": "Point", "coordinates": [ 9.87343, 55.85754 ] } },
{ "type": "Feature", "properties": { "time": "2020\/06\/09 16:28:23+00", "name": "Stauning Havn", "cmt": " ", "desc": "tømning af gråvand og kassette\nType\nSaniService + Stellplatz", "gpxx_WaypointExtension": "      " }, "geometry": { "type": "Point", "coordinates": [ 8.37285, 55.95487 ] } },
{ "type": "Feature", "properties": { "time": "2020\/06\/09 16:29:28+00", "name": "Ringkøbing Lystbådehavn", "cmt": " ", "desc": "2020: natophold 21-09 kr 150,- ellers gratis tømning af toilet og gråvand, ekstra for vand  ", "gpxx_WaypointExtension": "      " }, "geometry": { "type": "Point", "coordinates": [ 8.24072, 56.08636 ] } },
{ "type": "Feature", "properties": { "time": "2020\/06\/09 16:30:45+00", "name": "Søby Øst -18 -", "cmt": " ", "desc": "autocamperservice", "gpxx_WaypointExtension": "      " }, "geometry": { "type": "Point", "coordinates": [ 9.0042, 56.03992 ] } },
{ "type": "Feature", "properties": { "time": "2020\/06\/09 16:31:44+00", "name": "øby Vest -18-", "cmt": " ", "desc": "autocamperservice", "gpxx_WaypointExtension": "      " }, "geometry": { "type": "Point", "coordinates": [ 9.00106, 56.03799 ] } },
{ "type": "Feature", "properties": { "time": "2020\/06\/09 16:32:57+00", "name": "Cafeteria Kroen Hampen", "cmt": " ", "desc": "2020: overnatning kr 50,- inkl strøm og toilet tømning af toilet ", "gpxx_WaypointExtension": "      " }, "geometry": { "type": "Point", "coordinates": [ 9.37705, 56.03041 ] } },
{ "type": "Feature", "properties": { "time": "2020\/06\/09 16:35:35+00", "name": "Hou Havn", "cmt": " ", "desc": "tømning af gråvand og kassette\nType\nSaniService + Stellplatz", "gpxx_WaypointExtension": "      " }, "geometry": { "type": "Point", "coordinates": [ 10.25713, 55.91185 ] } },
{ "type": "Feature", "properties": { "time": "2020\/06\/09 16:36:34+00", "name": "Ejer Bavnehøj Øst E45", "cmt": " ", "desc": "autocamperservice", "gpxx_WaypointExtension": "      " }, "geometry": { "type": "Point", "coordinates": [ 9.86999, 55.97725 ] } },
{ "type": "Feature", "properties": { "time": "2020\/06\/09 16:37:28+00", "name": "Ejer Bavnehøj Vest E45", "cmt": " ", "desc": "autocamperservice", "gpxx_WaypointExtension": "      " }, "geometry": { "type": "Point", "coordinates": [ 9.86571, 55.97839 ] } },
{ "type": "Feature", "properties": { "time": "2020\/06\/09 16:39:23+00", "name": "Rønkilde Syd", "cmt": " ", "desc": "autocamperservice", "gpxx_WaypointExtension": "      " }, "geometry": { "type": "Point", "coordinates": [ 9.30086, 56.13321 ] } },
{ "type": "Feature", "properties": { "time": "2020\/06\/09 16:40:16+00", "name": "Rønkilde Nord - 15 -", "cmt": " ", "desc": "autocamperservice", "gpxx_WaypointExtension": "      " }, "geometry": { "type": "Point", "coordinates": [ 9.29664, 56.13597 ] } },
{ "type": "Feature", "properties": { "time": "2020\/06\/09 16:42:48+00", "name": "Hærvejen Syd -18 -", "cmt": " ", "desc": "autocamperservice    tømning af toilet og gråvand", "gpxx_WaypointExtension": "      " }, "geometry": { "type": "Point", "coordinates": [ 9.39578, 55.83561 ] } },
{ "type": "Feature", "properties": { "time": "2020\/06\/09 19:48:15+00", "name": "Kalbygård Skov S - 15 -", "cmt": " ", "desc": "Autocamperservice", "gpxx_WaypointExtension": "      " }, "geometry": { "type": "Point", "coordinates": [ 9.76285, 56.14796 ] } },
{ "type": "Feature", "properties": { "time": "2020\/06\/09 19:49:11+00", "name": "Kalby Skov N -rute15-", "cmt": " ", "desc": "Autocamperservice", "gpxx_WaypointExtension": "      " }, "geometry": { "type": "Point", "coordinates": [ 9.76513, 56.1495 ] } },
{ "type": "Feature", "properties": { "time": "2020\/06\/09 19:51:07+00", "name": "Blankhøj øst E45", "cmt": " ", "desc": "Autocamperservice", "gpxx_WaypointExtension": "      " }, "geometry": { "type": "Point", "coordinates": [ 10.06584, 56.17558 ] } },
{ "type": "Feature", "properties": { "time": "2020\/06\/09 19:52:11+00", "name": "Pedersminde vest E45", "cmt": " ", "desc": "Autocamperservice", "gpxx_WaypointExtension": "      " }, "geometry": { "type": "Point", "coordinates": [ 10.06626, 56.17857 ] } },
{ "type": "Feature", "properties": { "time": "2020\/06\/09 19:53:41+00", "name": "Egå Marina", "cmt": " ", "desc": "tømning af gråvand og kassette\nType\nSaniService + Stellplatz", "gpxx_WaypointExtension": "      " }, "geometry": { "type": "Point", "coordinates": [ 10.28659, 56.2096 ] } },
{ "type": "Feature", "properties": { "time": "2020\/06\/09 19:55:08+00", "name": "Kaløvig Bådelaug", "cmt": " ", "desc": "tømning af gråvand og kassette\nType\nSaniService + Stellplatz", "gpxx_WaypointExtension": "      " }, "geometry": { "type": "Point", "coordinates": [ 10.33937, 56.2462 ] } },
{ "type": "Feature", "properties": { "time": "2020\/06\/09 19:56:14+00", "name": "Nappedam Lystbådehavn", "cmt": " ", "desc": "2020: pris overnatning kr 150,- tømning af kassette     ", "gpxx_WaypointExtension": "      " }, "geometry": { "type": "Point", "coordinates": [ 10.49604, 56.27758 ] } },
{ "type": "Feature", "properties": { "time": "2020\/06\/09 19:57:16+00", "name": "Ebeltoft Skudehavn", "cmt": " ", "desc": "2020: overnatnink kr 180,- inkl vand og tømning tømning af toilet og gråvand   ", "gpxx_WaypointExtension": "      " }, "geometry": { "type": "Point", "coordinates": [ 10.66986, 56.18997 ] } },
{ "type": "Feature", "properties": { "time": "2020\/06\/09 19:58:28+00", "name": "Grenå Marina", "cmt": " ", "desc": "2020: overnatning kr 165,- inkl el tømning af kassette og gråvand ", "gpxx_WaypointExtension": "      " }, "geometry": { "type": "Point", "coordinates": [ 10.92342, 56.40533 ] } },
{ "type": "Feature", "properties": { "time": "2020\/06\/09 20:00:08+00", "name": "Mejrup Rast -rute 18 \/ 16-", "cmt": " ", "desc": "Tømning af toilet og gråvand.   ", "gpxx_WaypointExtension": "      " }, "geometry": { "type": "Point", "coordinates": [ 8.71844, 56.36747 ] } },
{ "type": "Feature", "properties": { "time": "2020\/06\/09 20:01:31+00", "name": "Klitrosevej Thorsminde", "cmt": " ", "desc": "autocamperservice", "gpxx_WaypointExtension": "      " }, "geometry": { "type": "Point", "coordinates": [ 8.1224, 56.37602 ] } },
{ "type": "Feature", "properties": { "time": "2020\/06\/09 20:02:49+00", "name": "Lemvig Camping", "cmt": " ", "desc": "2020: pit-stop kr 100,- inkl tømning af toilet, tillæg for friskvand og tømning af grå kr 35", "gpxx_WaypointExtension": "      " }, "geometry": { "type": "Point", "coordinates": [ 8.29422, 56.56719 ] } },
{ "type": "Feature", "properties": { "time": "2020\/06\/09 20:04:10+00", "name": "Struer Sejlklub", "cmt": " ", "desc": "2020: pris overnatning kr 152,- inkl el og WIFI tømning af toilet og gråvand  ", "gpxx_WaypointExtension": "      " }, "geometry": { "type": "Point", "coordinates": [ 8.59135, 56.49312 ] } },
{ "type": "Feature", "properties": { "time": "2020\/06\/09 20:05:12+00", "name": "Hanbjerg Marina", "cmt": " ", "desc": "2020: tømning og friskvand Dkr 55,- u\/overnatn, overnatning Dkr 150,- Tillæg strøm Mobilpay ", "gpxx_WaypointExtension": "      " }, "geometry": { "type": "Point", "coordinates": [ 8.71975, 56.47911 ] } },
{ "type": "Feature", "properties": { "time": "2020\/06\/09 20:06:43+00", "name": "Gyldendal Lystbådehavn", "cmt": " ", "desc": "tømning af gråvand og kassette\nType\nSaniService + Stellplatz", "gpxx_WaypointExtension": "      " }, "geometry": { "type": "Point", "coordinates": [ 8.71186, 56.58058 ] } },
{ "type": "Feature", "properties": { "time": "2020\/06\/09 20:07:54+00", "name": "Skive Havn", "cmt": " ", "desc": "Tømning af kassette.", "gpxx_WaypointExtension": "      " }, "geometry": { "type": "Point", "coordinates": [ 9.05131, 56.57641 ] } },
{ "type": "Feature", "properties": { "time": "2020\/06\/09 20:19:26+00", "name": "Humlum Fiskerleje & Camping", "cmt": " ", "desc": "2020 -tømning incl vand u\/overnatning 50,-kr., Udenfor bom kr. 100,- incl bad, tømning og vand", "gpxx_WaypointExtension": "      " }, "geometry": { "type": "Point", "coordinates": [ 8.57138, 56.54666 ] } },
{ "type": "Feature", "properties": { "time": "2020\/06\/09 20:21:14+00", "name": "Lund Camperplads", "cmt": " ", "desc": "2020: overnatning kr 50,- tømning af toilet og gråvand    ", "gpxx_WaypointExtension": "      " }, "geometry": { "type": "Point", "coordinates": [ 9.24264, 56.60437 ] } },
{ "type": "Feature", "properties": { "time": "2020\/06\/09 20:22:48+00", "name": "Virksund Camping", "cmt": " ", "desc": "2020 : tømning koster 10 tim, vand kr 40,- Overnatningspris pr tim: hverd kr 3,75, w.kr 7,50", "gpxx_WaypointExtension": "      " }, "geometry": { "type": "Point", "coordinates": [ 9.28819, 56.60794 ] } },
{ "type": "Feature", "properties": { "time": "2020\/06\/09 20:24:00+00", "name": "Hvalpsund Marina", "cmt": " ", "desc": "2020: overnatning kr 115,- tømning af toilet  ", "gpxx_WaypointExtension": "      " }, "geometry": { "type": "Point", "coordinates": [ 9.20217, 56.70407 ] } },
{ "type": "Feature", "properties": { "time": "2020\/06\/09 20:25:34+00", "name": "Løgstør Havn", "cmt": " ", "desc": "2020: overnatning kr 135,- inkl strøm vand WIFI tømning af toilet og gråvand    ", "gpxx_WaypointExtension": "      " }, "geometry": { "type": "Point", "coordinates": [ 9.24512, 56.96728 ] } },
{ "type": "Feature", "properties": { "time": "2020\/06\/09 20:26:38+00", "name": "Nibe Sejlklub", "cmt": " ", "desc": "2020: overnatning kr 130,- tillæg el kr 20,- tømning af toilet og gråvand    ", "gpxx_WaypointExtension": "      " }, "geometry": { "type": "Point", "coordinates": [ 9.63578, 56.9879 ] } },
{ "type": "Feature", "properties": { "time": "2020\/06\/09 20:27:46+00", "name": "Dall Vest E45", "cmt": " ", "desc": "autocamperservice", "gpxx_WaypointExtension": "      " }, "geometry": { "type": "Point", "coordinates": [ 9.9003, 56.9933 ] } },
{ "type": "Feature", "properties": { "time": "2020\/06\/09 20:29:08+00", "name": "Rast Limfjorden Ø E45", "cmt": " ", "desc": "autocamperservice", "gpxx_WaypointExtension": "      " }, "geometry": { "type": "Point", "coordinates": [ 9.89981, 56.99181 ] } },
{ "type": "Feature", "properties": { "time": "2020\/06\/09 20:30:22+00", "name": "Himmerland Vest E45", "cmt": " ", "desc": "autocamperservice", "gpxx_WaypointExtension": "      " }, "geometry": { "type": "Point", "coordinates": [ 9.74048, 56.84259 ] } },
{ "type": "Feature", "properties": { "time": "2020\/06\/09 20:31:11+00", "name": "Himmerland Øst", "cmt": " ", "desc": "autocamperservice", "gpxx_WaypointExtension": "      " }, "geometry": { "type": "Point", "coordinates": [ 9.73773, 56.83942 ] } },
{ "type": "Feature", "properties": { "time": "2020\/06\/09 20:32:16+00", "name": "Øster Hurup Havn", "cmt": " ", "desc": "2020: overnat kr 150,- inkl strøm, bad og wifi tømning af toilet og gråvand", "gpxx_WaypointExtension": "      " }, "geometry": { "type": "Point", "coordinates": [ 10.28026, 56.80516 ] } },
{ "type": "Feature", "properties": { "time": "2020\/06\/09 20:33:26+00", "name": "Hadsund Lystbådehavn", "cmt": " ", "desc": "2020: pris overnatnijng kr 150,- tømning af toilet og gråvand", "gpxx_WaypointExtension": "      " }, "geometry": { "type": "Point", "coordinates": [ 10.10424, 56.7108 ] } },
{ "type": "Feature", "properties": { "time": "2020\/06\/09 20:34:17+00", "name": "Kongsdal Lystbådehavn", "cmt": " ", "desc": "tømning af gråvand og kassette\nType\nSaniService + Stellplatz", "gpxx_WaypointExtension": "      " }, "geometry": { "type": "Point", "coordinates": [ 10.07006, 56.68367 ] } },
{ "type": "Feature", "properties": { "time": "2020\/06\/09 20:35:29+00", "name": "Mariager Camping", "cmt": " ", "desc": "2020: tømning inkl vand pris 75,- u\/overnatn. Overnatning kr 120,- inkl alt.", "gpxx_WaypointExtension": "      " }, "geometry": { "type": "Point", "coordinates": [ 9.97535, 56.65424 ] } },
{ "type": "Feature", "properties": { "time": "2020\/06\/09 20:43:00+00", "name": "Sillerslev Marina", "cmt": " ", "desc": "2020: gratis overnatning, cafeteria sommeråben tømning af gråvand og kassette + off. toilet", "gpxx_WaypointExtension": "      " }, "geometry": { "type": "Point", "coordinates": [ 8.72939, 56.6817 ] } },
{ "type": "Feature", "properties": { "time": "2020\/06\/09 20:44:08+00", "name": "Nykøbing Mors Havn", "cmt": " ", "desc": "2020: overnatning kr 130,- inkl wifi tømning af toilet og gråvand  ", "gpxx_WaypointExtension": "      " }, "geometry": { "type": "Point", "coordinates": [ 8.86246, 56.79354 ] } },
{ "type": "Feature", "properties": { "time": "2020\/06\/09 20:45:40+00", "name": "Kelds Køreskole Nyk M", "cmt": " ", "desc": "2020: Gratis overnatning på stedet. Tømning af toilet og gråvand ", "gpxx_WaypointExtension": "      " }, "geometry": { "type": "Point", "coordinates": [ 8.8475, 56.7993 ] } },
{ "type": "Feature", "properties": { "time": "2020\/06\/09 20:46:36+00", "name": "Ejerslev Havn", "cmt": " ", "desc": "2020: pris overnatning kr 120,- Tømning af gråvand og kassette   ", "gpxx_WaypointExtension": "      " }, "geometry": { "type": "Point", "coordinates": [ 8.92081, 56.9183 ] } },
{ "type": "Feature", "properties": { "time": "2020\/06\/09 20:51:54+00", "name": "Hanstholm Circle K", "cmt": " ", "desc": "autocamperservice       tømning af toilet og gråvand gratis", "gpxx_WaypointExtension": "      " }, "geometry": { "type": "Point", "coordinates": [ 8.6286, 57.11645 ] } },
{ "type": "Feature", "properties": { "time": "2020\/06\/09 20:52:47+00", "name": "Thy minicamp, Ræhr put and Take", "cmt": " ", "desc": "tømning af gråvand og kassette\nType\nSaniService + Stellplatz", "gpxx_WaypointExtension": "      " }, "geometry": { "type": "Point", "coordinates": [ 8.67402, 57.0905 ] } },
{ "type": "Feature", "properties": { "time": "2020\/06\/09 20:53:52+00", "name": "Amtoft Minicamp\/Havn", "cmt": " ", "desc": "2020: Overnatning inkl tømning\/vand Kr 100,-", "gpxx_WaypointExtension": "      " }, "geometry": { "type": "Point", "coordinates": [ 8.94061, 57.00658 ] } },
{ "type": "Feature", "properties": { "time": "2020\/06\/09 20:55:19+00", "name": "Lønstrup Camping Møllebakken", "cmt": " ", "desc": "2020: tømning m\/vand kr 40,- uden overnatning Overnatning kr 150,- , højsæson +50,- ", "gpxx_WaypointExtension": "      " }, "geometry": { "type": "Point", "coordinates": [ 9.80108, 57.47377 ] } },
{ "type": "Feature", "properties": { "time": "2020\/06\/09 20:56:19+00", "name": "Hirtshals Transport Center", "cmt": " ", "desc": "autocamperservice   tømning af toilet og gråvand", "gpxx_WaypointExtension": "      " }, "geometry": { "type": "Point", "coordinates": [ 9.98489, 57.57736 ] } },
{ "type": "Feature", "properties": { "time": "2020\/06\/09 20:57:41+00", "name": "Vildmose Vest E39", "cmt": " ", "desc": "autocamperservice     tømning af toilet og gråvand", "gpxx_WaypointExtension": "      " }, "geometry": { "type": "Point", "coordinates": [ 9.93759, 57.22259 ] } },
{ "type": "Feature", "properties": { "time": "2020\/06\/09 20:58:41+00", "name": "Vildmose Øst E39", "cmt": " ", "desc": "autocamperservice     tømning af toilet og gråvand", "gpxx_WaypointExtension": "      " }, "geometry": { "type": "Point", "coordinates": [ 9.94116, 57.22211 ] } },
{ "type": "Feature", "properties": { "time": "2020\/06\/09 20:59:45+00", "name": "Brønderslev", "cmt": " ", "desc": "tømning af toilet og grå , frisk vand. gratis overnatning for AC tæt ved centrum ", "gpxx_WaypointExtension": "      " }, "geometry": { "type": "Point", "coordinates": [ 9.95244, 57.27483 ] } },
{ "type": "Feature", "properties": { "time": "2020\/06\/09 21:00:42+00", "name": "Vendelbo vans, Tårs", "cmt": " ", "desc": "2020: overnatning kr 75,- tømning af toilet og gråvand    ", "gpxx_WaypointExtension": "      " }, "geometry": { "type": "Point", "coordinates": [ 10.11483, 57.38969 ] } },
{ "type": "Feature", "properties": { "time": "2020\/06\/09 21:01:49+00", "name": "Asaa Havn", "cmt": " ", "desc": "2020: pris overnatning kr 120,- tømning af toilet og gråvand ", "gpxx_WaypointExtension": "      " }, "geometry": { "type": "Point", "coordinates": [ 10.42497, 57.14491 ] } },
{ "type": "Feature", "properties": { "time": "2020\/06\/09 21:03:05+00", "name": "Hjallerup Enge V E45", "cmt": " ", "desc": "autocamperservice", "gpxx_WaypointExtension": "      " }, "geometry": { "type": "Point", "coordinates": [ 10.15736, 57.15359 ] } },
{ "type": "Feature", "properties": { "time": "2020\/06\/09 21:04:32+00", "name": "Hjallerup Øst E45", "cmt": " ", "desc": "autocamperservice", "gpxx_WaypointExtension": "      " }, "geometry": { "type": "Point", "coordinates": [ 10.16114, 57.15287 ] } },
{ "type": "Feature", "properties": { "time": "2020\/06\/09 21:05:32+00", "name": "Flauenskjold", "cmt": " ", "desc": "tømning af gråvand og kassette\nType\nSaniService + Stellplatz", "gpxx_WaypointExtension": "      " }, "geometry": { "type": "Point", "coordinates": [ 10.28436, 57.24824 ] } },
{ "type": "Feature", "properties": { "time": "2020\/06\/09 21:06:31+00", "name": "Trafikcenter Sæby", "cmt": " ", "desc": "autocamperservice   tømning af toilet og gråvand v\/ Circle K", "gpxx_WaypointExtension": "      " }, "geometry": { "type": "Point", "coordinates": [ 10.45026, 57.31372 ] } },
{ "type": "Feature", "properties": { "time": "2020\/06\/09 21:07:50+00", "name": "Øksenhede Øst E45", "cmt": " ", "desc": "tømning af toilet og gråvand   ", "gpxx_WaypointExtension": "      " }, "geometry": { "type": "Point", "coordinates": [ 10.45549, 57.3435 ] } },
{ "type": "Feature", "properties": { "time": "2020\/06\/09 21:08:56+00", "name": "Frederikshavn Marina", "cmt": " ", "desc": "2020: overnatn kr 160,- inkl bad, toilet og wifi tømning af toilet og gråvand ", "gpxx_WaypointExtension": "      " }, "geometry": { "type": "Point", "coordinates": [ 10.5278, 57.42424 ] } }
]
}
